LAST EDITED DATE	COUNTRY	COUNTRY CODE	STATE	STATE CODE	COUNTY	COUNTY CODE	IBA CODE	BCR CODE	USFWS CODE	ATLAS BLOCK	LOCALITY	LOCALITY ID	LOCALITY TYPE	LATITUDE	LONGITUDE	OBSERVATION DATE	TIME OBSERVATIONS STARTED	OBSERVER ID	OBSERVER ORCID ID	SAMPLING EVENT IDENTIFIER	OBSERVATION TYPE	PROTOCOL TYPE	PROTOCOL CODE	PROJECT NAMES	PROJECT IDENTIFIERS	DURATION MINUTES	EFFORT DISTANCE KM	EFFORT AREA HA	NUMBER OBSERVERS	ALL SPECIES REPORTED	GROUP IDENTIFIER	CHECKLIST COMMENTS
2022-05-10 16:45:15.613224	Canada	CA	British Columbia	CA-BC	Columbia-Shuswap	CA-BC-CS		10			Big Eddy Greenway, Revelstoke, British Columbia, CA (50.987, -118.22)	L18961588	P	50.9872975	-118.2202294	2022-05-10	13:14:00	obsr228152		S109589697	Traveling	Traveling	P22			20	0.200		1	1		Mostly overcast, 12 C, calm.
2022-05-24 18:32:16.571835	Canada	CA	British Columbia	CA-BC	Columbia-Shuswap	CA-BC-CS		10			Big Eddy Greenway, Revelstoke, British Columbia, CA (50.987, -118.22)	L18961588	P	50.9872975	-118.2202294	2022-05-24	13:53:00	obsr228152		S111197861	Traveling	Traveling	P22			26	0.380		1	1		Overcast, 15 C, calm
2022-05-18 17:58:51.146519	Canada	CA	Alberta	CA-AB	Banff	CA-AB-FN		10			Alberta 93A, Jasper, Alberta, CA (52.812, -118.051)	L19142443	P	52.8122229	-118.0513544	2022-05-18	15:53:00	obsr1237880		S110607967	Stationary	Stationary	P21			5			1	1		
2022-05-20 16:58:29.58916	Canada	CA	Alberta	CA-AB	Banff	CA-AB-FN		10			Alpine Village, Jasper Alberta CA	L19174735	P	52.8599583	-118.0764198	2022-05-20	08:45:00	obsr2001		S110777508	Traveling	Traveling	P22			60	1.609		2	1		
2022-05-26 16:55:18.616208	Canada	CA	Alberta	CA-AB	Banff	CA-AB-FN		10			Alpine Village, Jasper Alberta CA	L19174735	P	52.8599583	-118.0764198	2022-05-26	07:20:00	obsr2001		S111344356	Stationary	Stationary	P21			60			2	1		At the cabin throughout the day
2022-05-22 18:43:12.301994	Canada	CA	Alberta	CA-AB	Banff	CA-AB-FN		10			Alpine Village, Jasper Alberta CA	L19174735	P	52.8599583	-118.0764198	2022-05-22	09:00:00	obsr2001		S110978584	Traveling	Traveling	P22			120	0.805		2	1		Throughout the day
2022-05-21 15:46:30.136274	Canada	CA	Alberta	CA-AB	Banff	CA-AB-FN		10			Alpine Village, Jasper Alberta CA	L19174735	P	52.8599583	-118.0764198	2022-05-21	06:30:00	obsr2001		S110876377	Stationary	Stationary	P21			120			2	1		At cabin throughout the day
2022-06-01 17:20:03.967325	Canada	CA	Alberta	CA-AB	Banff	CA-AB-FN		10			Alpine Village, Jasper Alberta CA	L19174735	P	52.8599583	-118.0764198	2022-06-01	14:00:00	obsr2001		S111902059	Traveling	Traveling	P22			60	0.805		2	1		At the cabin and on grounds throughout the day
2022-06-02 14:51:57.404228	Canada	CA	Alberta	CA-AB	Banff	CA-AB-FN		10			Alpine Village, Jasper Alberta CA	L19174735	P	52.8599583	-118.0764198	2022-06-02	09:45:00	obsr2001		S111967808	Traveling	Traveling	P22			120	3.219		2	1		Cabin, Athabasca, forest edge, road to Miette
2022-05-31 10:20:31.224868	Canada	CA	Alberta	CA-AB	Banff	CA-AB-FN		10			Alpine Village, Jasper Alberta CA	L19174735	P	52.8599583	-118.0764198	2022-05-25	08:00:00	obsr2001		S111293152	Traveling	Traveling	P22			120	3.219		2	1		Cabin, woods and riverside throughout the day
2022-05-29 21:31:59.814059	Canada	CA	Alberta	CA-AB	Banff	CA-AB-FN		10			Alpine Village, Jasper Alberta CA	L19174735	P	52.8599583	-118.0764198	2022-05-29	07:00:00	obsr2001		S111621060	Traveling	Traveling	P22			120	4.506		2	1		At the cabin throughout the day and to Miette R
2022-05-14 09:41:11.735406	Canada	CA	British Columbia	CA-BC	Columbia-Shuswap	CA-BC-CS		10			6581 Eagle Bay Rd, Columbia Shuswap CA-BC	L19023702	P	50.9622520	-119.0890610	2022-05-14	06:38:00	obsr1199137		S109998537	Stationary	Stationary	P21			2			1	1		
2022-05-13 23:43:05.172836	Canada	CA	British Columbia	CA-BC	Columbia-Shuswap	CA-BC-CS		10			6581 Eagle Bay Rd, Columbia Shuswap CA-BC	L19023702	P	50.9622520	-119.0890610	2022-05-13	20:31:00	obsr1199137		S109952389	Stationary	Stationary	P21			5			1	1		
2022-05-14 09:46:27.315202	Canada	CA	British Columbia	CA-BC	Columbia-Shuswap	CA-BC-CS		10			6581 Eagle Bay Rd, Columbia Shuswap CA-BC	L19023702	P	50.9622520	-119.0890610	2022-05-14	06:43:00	obsr1199137		S109999917	Stationary	Stationary	P21			2			1	1		
2022-05-14 12:52:49.610473	Canada	CA	British Columbia	CA-BC	Columbia-Shuswap	CA-BC-CS		10			Cabin Shoreline	L19040781	P	50.9645963	-119.0814032	2022-05-13	18:54:00	obsr2960561		S110044000	Stationary	Stationary	P21			3			1	1		
2022-05-21 20:51:24.495061	Canada	CA	British Columbia	CA-BC	Columbia-Shuswap	CA-BC-CS		10			Cabin Shoreline	L19040781	P	50.9645963	-119.0814032	2022-05-21	17:48:00	obsr2960561		S110909534	Stationary	Stationary	P21			2			1	1		
2022-05-14 16:30:32.444007	Canada	CA	British Columbia	CA-BC	Thompson-Nicola	CA-BC-TN		9			Southern Yellowhead Highway, British Columbia, CA (51.088, -120.177)	L19042567	P	51.0881176	-120.1765270	2022-05-14	13:28:00	obsr632575		S110095536	Stationary	Stationary	P21			1			1	1		
2022-05-14 13:27:50.396435	Canada	CA	British Columbia	CA-BC	Thompson-Nicola	CA-BC-TN		9			Southern Yellowhead Highway, British Columbia, CA (51.088, -120.177)	L19042567	P	51.0881176	-120.1765270	2022-05-14	10:26:00	obsr632575		S110052288	Stationary	Stationary	P21			1			1	1		
2022-05-21 21:04:47.102415	Canada	CA	British Columbia	CA-BC	Columbia-Shuswap	CA-BC-CS		10			408 Fifth St W, Revelstoke CA-BC (50.9982,-118.2020)	L19202650	P	50.9982400	-118.2019540	2022-05-20	13:12:00	obsr284814		S110910642	Stationary	Stationary	P21			15			2	1		
2022-05-14 18:56:30.536529	Canada	CA	British Columbia	CA-BC	Columbia-Shuswap	CA-BC-CS		10			Big Bend Highway, British Columbia, CA (51.133, -118.193)	L19056818	P	51.1334568	-118.1933767	2022-05-14	15:13:00	obsr228152		S110127534	Traveling	Traveling	P22			10	0.240		1	1		Overcast, 14 C, wind SW 40 k.
2022-05-29 12:38:59.645352	Canada	CA	Alberta	CA-AB	Banff	CA-AB-FN		10			Old Fort Point Trail	L19083907	P	52.8692355	-118.0543131	2022-05-12	10:12:00	obsr1186374		S110277930	Traveling	Traveling	P22			152	3.320		2	1	G8473951	
2022-05-15 21:17:50.503951	Canada	CA	British Columbia	CA-BC	Columbia-Shuswap	CA-BC-CS		10			Tsutswecw Provincial Park - Wade Road trail	L19091509	P	50.9225530	-119.6277170	2022-05-15	15:31:00	obsr3093517		S110319268	Traveling	Traveling	P22			68	5.000		1	1		Birding while mountain biking. Most identification done by ear.
2022-05-16 19:51:11.264885	Canada	CA	Alberta	CA-AB	Banff	CA-AB-FN		10			Park Lodge Access, Jasper, Alberta, CA (52.88, -118.055)	L19104705	P	52.8797864	-118.0552754	2022-05-16	12:59:00	obsr1354569		S110397882	Traveling	Traveling	P22			120	5.000		1	1		
2022-05-14 20:57:26.869716	Canada	CA	British Columbia	CA-BC	Columbia-Shuswap	CA-BC-CS		10			Southside	L19061078	P	50.9918790	-118.1861790	2022-05-14	16:36:00	obsr1093108		S110152561	Traveling	Traveling	P22			78	2.215		1	1		
2022-08-15 19:15:02.493084	Canada	CA	British Columbia	CA-BC	Columbia-Shuswap	CA-BC-CS		10			Southside	L19061078	P	50.9918790	-118.1861790	2022-06-04	16:41:00	obsr1093108		S114801917	Traveling	Traveling	P22			106	1.173		1	1		
2022-05-15 18:48:29.824919	Canada	CA	British Columbia	CA-BC	Thompson-Nicola	CA-BC-TN		9			Southern Yellowhead Highway, British Columbia, CA (50.981, -120.229)	L19088735	P	50.9813471	-120.2291329	2022-05-15	15:34:00	obsr94131		S110303012	Stationary	Stationary	P21			10			2	1		At truck pull-off
2022-05-14 23:51:24.573447	Canada	CA	Alberta	CA-AB	Banff	CA-AB-FN		10			1, Alberta, CA (52.869, -118.054)	L19064959	P	52.8690893	-118.0539965	2022-05-12	11:09:00	obsr3053528		S110176018	Traveling	Traveling	P22			95	2.280		1	1		
2022-05-16 10:10:57.77194	Canada	CA	Alberta	CA-AB	Banff	CA-AB-FN		10			Pocahontas Swamp Jasper National Park, Improvement District No. 12 Jasper Park CA-AB (53.1975,-117.9363)	L19098796	P	53.1974690	-117.9362630	2022-05-14	14:30:00	obsr797884		S110364554	Stationary	Stationary	P21			10			2	1		
2022-05-16 10:14:40.99951	Canada	CA	Alberta	CA-AB	Banff	CA-AB-FN		10			Jasper House Jasper National Park, Improvement District No. 12 Jasper Park CA-AB (53.1460,-117.9773)	L19098867	P	53.1459620	-117.9773070	2022-05-14	14:50:00	obsr797884		S110364957	Stationary	Stationary	P21			20			2	1		
2022-05-16 10:22:20.585392	Canada	CA	Alberta	CA-AB	Banff	CA-AB-FN		10			Talbot Lake Boat launch Jasper National Park, Improvement District No. 12 Jasper Park CA-AB (53.1088,-117.9868)	L19099037	P	53.1087910	-117.9868150	2022-05-14	15:20:00	obsr797884		S110365819	Stationary	Stationary	P21			40			2	1		
2022-05-16 10:25:55.618395	Canada	CA	Alberta	CA-AB	Banff	CA-AB-FN		10			Cold Spring Jasper National Park, Improvement District No. 12 Jasper Park CA-AB (53.0451,-118.0824)	L19099102	P	53.0450560	-118.0824400	2022-05-14	16:10:00	obsr797884		S110366246	Stationary	Stationary	P21			25			2	1		
2022-05-16 10:29:44.877092	Canada	CA	Alberta	CA-AB	Banff	CA-AB-FN		10			North Talbot Jasper National Park, Improvement District No. 12 Jasper Park CA-AB (53.1237,-117.9907)	L19099184	P	53.1237100	-117.9906720	2022-05-14	16:45:00	obsr797884		S110366689	Stationary	Stationary	P21			15			2	1		
2022-06-17 12:27:24.361983	Canada	CA	British Columbia	CA-BC	Thompson-Nicola	CA-BC-TN	US-AK_4545	9			511 Road Forest Service Road, Wells Gray Country, British Columbia, CA (51.587, -120.131)	L19105446	P	51.5869772	-120.1312246	2022-05-16	11:58:00	obsr94131		S110402150	Stationary	Stationary	P21			35			2	1		
2022-05-29 12:38:59.645352	Canada	CA	Alberta	CA-AB	Banff	CA-AB-FN		10			Old Fort Point Trail	L19083907	P	52.8692355	-118.0543131	2022-05-12	10:12:00	obsr3053528		S111611204	Traveling	Traveling	P22			152	3.320		2	1	G8473951	
2024-05-03 17:24:55.116276	Canada	CA	British Columbia	CA-BC	Thompson-Nicola	CA-BC-TN		10			Eleanor Lake	L19291702	P	52.1120830	-119.2989410	2022-05-26	15:46:00	obsr2804498		S111362948	Stationary	Stationary	P21			3			1	1		
2022-05-17 16:34:11.139658	Canada	CA	Alberta	CA-AB	Banff	CA-AB-FN		10			Jasper, Alberta, CA (52.876, -118.072)	L19124404	P	52.8761821	-118.0719744	2022-05-17	14:24:00	obsr94131		S110508095	Stationary	Stationary	P21			7			2	1		
2022-05-17 17:37:49.527889	Canada	CA	Alberta	CA-AB	Banff	CA-AB-FN		10			Yellowhead Highway, Alberta, CA (53.196, -117.937)	L19125484	P	53.1959253	-117.9365394	2022-05-17	15:25:00	obsr94131		S110514066	Stationary	Stationary	P21			12			2	1		
2022-05-18 22:46:50.08605	Canada	CA	Alberta	CA-AB	Grande Cache	CA-AB-ET		10			Auto selected 53.93215, -118.95657	L19127537	P	53.9321520	-118.9565660	2022-05-18	20:42:00	obsr1265535		S110631208	Stationary	Stationary	P21			3			1	1		
2022-05-30 23:56:01.184308	Canada	CA	Alberta	CA-AB	Grande Cache	CA-AB-ET		10			Auto selected 53.93215, -118.95657	L19127537	P	53.9321520	-118.9565660	2022-05-17	17:43:00	obsr1265535		S110525675	Stationary	Stationary	P21			2			1	1		
2022-05-20 00:26:49.439536	Canada	CA	British Columbia	CA-BC	Cariboo	CA-BC-CR		10			Mahood Feeder House	L19163060	P	51.8421078	-120.6362818	2022-05-19	08:40:00	obsr117757		S110718884	Stationary	Stationary	P21			15			2	1		
2022-05-19 10:29:22.683274	Canada	CA	British Columbia	CA-BC	Columbia-Shuswap	CA-BC-CS		10			1870–1890 Glacier Ln, Revelstoke CA-BC 51.05062, -118.21690	L19151124	P	51.0506220	-118.2168980	2022-05-19	07:23:00	obsr1843493		S110657154	Traveling	Traveling	P22			5	0.155		1	1		
2022-05-20 15:43:17.21501	Canada	CA	British Columbia	CA-BC	Thompson-Nicola	CA-BC-TN		10			1973–1999 Yellowhead Highway 5, Thompson-Nicola CA-BC (51.7357,-119.3428)	L19173396	P	51.7356930	-119.3428040	2022-05-20	12:37:00	obsr1402081		S110770850	Stationary	Stationary	P21			5			1	1		
2022-05-20 16:08:00.481875	Canada	CA	British Columbia	CA-BC	Thompson-Nicola	CA-BC-TN		10			Eleanor Lake	L19173902	P	52.1119070	-119.2991560	2022-05-20	13:01:00	obsr1402081		S110773126	Stationary	Stationary	P21			5			1	1		
2022-05-19 22:43:03.714654	Canada	CA	Alberta	CA-AB	Banff	CA-AB-FN		10			Jasper NP—Jasper Airstrip	L19162687	P	52.9963350	-118.0601446	2022-05-19	10:45:00	obsr1857138		S110716830	Traveling	Traveling	P22			20	0.200		2	1		
2022-05-20 15:31:05.283689	Canada	CA	Alberta	CA-AB	Banff	CA-AB-FN		10			Jasper National Park, Improvement District No. 12 Jasper Park CA-AB (53.2237,-117.8734)	L19173157	P	53.2236800	-117.8733990	2022-05-20	09:07:00	obsr313040		S110769782	Traveling	Traveling	P22			130	2.603		1	1		
2024-05-03 17:04:36.138395	Canada	CA	British Columbia	CA-BC	Thompson-Nicola	CA-BC-TN		9			Knoeff lake	L19203565	P	50.9764490	-120.1170160	2022-05-21	15:02:00	obsr1611170		S110915473	Traveling	Traveling	P22			155	2.195		1	1		
2022-05-31 14:03:58.89949	Canada	CA	British Columbia	CA-BC	Thompson-Nicola	CA-BC-TN		9			Auto selected 50.96620, -120.24735	L19390125	P	50.9662000	-120.2473550	2022-05-31	05:29:00	obsr1066360		S111814225	Traveling	Traveling	P22			200	0.400		1	1		
2022-05-31 16:27:01.185176	Canada	CA	British Columbia	CA-BC	Thompson-Nicola	CA-BC-TN		9			Auto selected 50.96867, -120.23426	L19392266	P	50.9686650	-120.2342570	2022-05-31	11:04:00	obsr1066360		S111824408	Traveling	Traveling	P22			142	2.435		1	1		
2022-05-31 23:09:48.108845	Canada	CA	British Columbia	CA-BC	Columbia-Shuswap	CA-BC-CS		10			Basecamp Resort - Revelstoke	L19396956	P	51.0218120	-118.2139880	2022-05-31	19:51:00	obsr105443		S111851243	Traveling	Traveling	P22			12	0.279		1	1		
2022-05-31 22:00:38.376102	Canada	CA	British Columbia	CA-BC	Columbia-Shuswap	CA-BC-CS		10			Basecamp Resort - Revelstoke	L19396956	P	51.0218120	-118.2139880	2022-05-31	18:46:00	obsr105443		S111848094	Stationary	Stationary	P21			13			1	1		
2024-05-03 17:09:47.110752	Canada	CA	Alberta	CA-AB	Banff	CA-AB-FN		10			Hidden Valley, Jasper, AB (53.174, -117.969)	L19220293	P	53.1736365	-117.9692241	2022-05-22	10:31:00	obsr897969		S110996427	Traveling	Traveling	P22			200	4.800		1	1		
2022-05-23 00:02:43.531443	Canada	CA	Alberta	CA-AB	Banff	CA-AB-FN		10			Jasper National Park--Old Fort Point	L19228807	P	52.8693990	-118.0555750	2022-05-22	19:58:00	obsr1214530		S111039285	Traveling	Traveling	P22			85	2.076		2	1	G8439590	
2022-05-23 10:39:53.591094	Canada	CA	British Columbia	CA-BC	Cariboo	CA-BC-CR	US-AK_4545	10			Bridge Lake Ice Caves	L19233593	P	51.4986315	-120.7722545	2022-05-22	10:30:00	obsr1857138		S111071175	Traveling	Traveling	P22			60	1.600		4	1		
2024-05-03 17:13:47.783359	Canada	CA	Alberta	CA-AB	Banff	CA-AB-FN		10			Wabasso Lake, Icefields Parkway, Jasper, Alberta, CA (52.77, -117.979)	L19240361	P	52.7695601	-117.9794845	2022-05-23	09:52:00	obsr897969		S111104243	Traveling	Traveling	P22			240	4.500		1	1		To Wabasso Lake and back
2022-05-22 14:10:48.353838	Canada	CA	British Columbia	CA-BC	Cariboo	CA-BC-CR	US-AK_4545	10			Halliday Heights	L19217139	P	51.5199830	-120.8304190	2022-05-22	09:41:00	obsr1339052		S110982217	Traveling	Traveling	P22			88	2.376		1	1		
2022-05-23 19:28:07.387106	Canada	CA	British Columbia	CA-BC	Thompson-Nicola	CA-BC-TN	US-AK_4545	9			Dunn Lake Rd, Darfield CA-BC 51.37027, -120.15539	L19243713	P	51.3886189	-120.1262096	2022-05-23	14:52:00	obsr1116831		S111121493	Traveling	Traveling	P22			75	5.000		2	1		From location noted in ebird and south on Dunn Lake Road
2022-05-23 00:02:43.531443	Canada	CA	Alberta	CA-AB	Banff	CA-AB-FN		10			Jasper National Park--Old Fort Point	L19228807	P	52.8693990	-118.0555750	2022-05-22	19:58:00	obsr313040		S111039284	Traveling	Traveling	P22			85	2.076		2	1	G8439590	
2022-05-23 12:50:52.11891	Canada	CA	Alberta	CA-AB	Banff	CA-AB-FN		10			Jasper National Park, Jasper CA-AB 52.99572, -118.08333	L19236437	P	52.9957170	-118.0833340	2022-05-23	08:37:00	obsr313040		S111084860	Traveling	Traveling	P22			88	4.491		2	1		
2022-05-23 13:17:46.826282	Canada	CA	British Columbia	CA-BC	Fraser-Fort George	CA-BC-FF		10			Auto selected 52.82314, -119.28887	L19236944	P	52.8231420	-119.2888740	2022-05-23	08:17:00	obsr3098154		S111087567	Traveling	Traveling	P22			118	1.821		1	1		
2022-05-23 15:21:00.970277	Canada	CA	British Columbia	CA-BC	Thompson-Nicola	CA-BC-TN		10			Yellowhead Highway 5, Thompson-Nicola CA-BC 52.16380, -119.26904	L19239336	P	52.1637990	-119.2690370	2022-05-23	11:49:00	obsr3098154		S111099530	Stationary	Stationary	P21			31			1	1		
2022-05-25 12:30:02.941745	Canada	CA	Alberta	CA-AB	Banff	CA-AB-FN		10			Patricia Lake Bungalows	L19269347	P	52.9020470	-118.0992870	2022-05-25	10:16:00	obsr2523200		S111255300	Stationary	Stationary	P21			11			1	1		
2022-05-23 22:34:44.031221	Canada	CA	Alberta	CA-AB	Banff	CA-AB-FN		10			Wapiti Loop Y, Jasper, Alberta, CA (52.834, -118.059)	L19246246	P	52.8341417	-118.0590271	2022-05-23	20:13:00	obsr1296665		S111135705	Traveling	Traveling	P22			6	0.200		1	1		
2022-06-04 14:39:02.979973	Canada	CA	Alberta	CA-AB	Banff	CA-AB-FN		10			Jasper House	L19458249	P	53.1458980	-117.9771690	2022-06-04	11:26:00	obsr366533		S112130015	Traveling	Traveling	P22			44	0.792		2	1		
2022-05-24 17:00:32.516714	Canada	CA	British Columbia	CA-BC	Thompson-Nicola	CA-BC-TN		10			Yellowhead Highway 5, Thompson-Nicola CA-BC 52.16373, -119.26909	L19253432	P	52.1637320	-119.2690860	2022-05-24	10:14:00	obsr3098154		S111196167	Traveling	Traveling	P22			91	2.549		1	1		
2022-05-24 12:25:02.377155	Canada	CA	British Columbia	CA-BC	Thompson-Nicola	CA-BC-TN		10			Yellowhead Highway 5, Thompson-Nicola CA-BC 52.16373, -119.26909	L19253432	P	52.1637320	-119.2690860	2022-05-24	05:57:00	obsr3098154		S111172860	Traveling	Traveling	P22			207	4.495		1	1		
2024-03-10 16:03:56.133197	Canada	CA	British Columbia	CA-BC	Columbia-Shuswap	CA-BC-CS		10			Arrows Edge Lodge	L19465931	P	50.9555938	-118.1752223	2022-06-04	16:39:00	obsr4830906		S164351590	Stationary	Stationary	P21			53			2	1	G11879225	
2024-03-10 16:03:56.133197	Canada	CA	British Columbia	CA-BC	Columbia-Shuswap	CA-BC-CS		10			Arrows Edge Lodge	L19465931	P	50.9555938	-118.1752223	2022-06-04	16:39:00	obsr817769		S112162141	Stationary	Stationary	P21			53			2	1	G11879225	
2022-05-26 12:06:47.767935	Canada	CA	British Columbia	CA-BC	Columbia-Shuswap	CA-BC-CS		10			Williamson Lake trail	L19285140	P	50.9693600	-118.1752080	2022-05-26	08:13:00	obsr717699		S111332403	Traveling	Traveling	P22			52	0.515		1	1		
2022-07-29 12:41:13.483544	Canada	CA	British Columbia	CA-BC	Thompson-Nicola	CA-BC-TN	US-AK_4545	10			4601–4699 Yellowhead Highway 5, Thompson-Nicola CA-BC 51.67404, -119.53672	L19267625	P	51.6740400	-119.5367210	2022-07-29	08:42:00	obsr3098154		S115963513	Traveling	Traveling	P22			58	0.773		1	1		
2022-07-29 12:41:42.829626	Canada	CA	British Columbia	CA-BC	Thompson-Nicola	CA-BC-TN	US-AK_4545	10			4601–4699 Yellowhead Highway 5, Thompson-Nicola CA-BC 51.67404, -119.53672	L19267625	P	51.6740400	-119.5367210	2022-05-25	08:59:00	obsr3098154		S115963541	Traveling	Traveling	P22			27	0.367		1	1		
2022-05-27 10:52:52.931883	Canada	CA	British Columbia	CA-BC	Thompson-Nicola	CA-BC-TN	US-AK_4545	10			4601–4699 Yellowhead Highway 5, Thompson-Nicola CA-BC 51.67404, -119.53672	L19267625	P	51.6740400	-119.5367210	2022-05-27	07:09:00	obsr3098154		S111403286	Traveling	Traveling	P22			43	0.693		1	1		
2022-07-30 12:48:22.311689	Canada	CA	British Columbia	CA-BC	Thompson-Nicola	CA-BC-TN	US-AK_4545	10			4601–4699 Yellowhead Highway 5, Thompson-Nicola CA-BC 51.67404, -119.53672	L19267625	P	51.6740400	-119.5367210	2022-07-30	09:32:00	obsr3098154		S116023681	Traveling	Traveling	P22			15	0.350		1	1		
2022-05-25 11:11:52.489229	Canada	CA	British Columbia	CA-BC	Thompson-Nicola	CA-BC-TN		10			869 Shell Road, Blue River, British Columbia, CA (52.11, -119.31)	L19268035	P	52.1096660	-119.3098269	2022-05-25	08:00:00	obsr2565805		S111248612	Stationary	Stationary	P21			1			1	1		
2025-08-23 05:16:19.690013	Canada	CA	British Columbia	CA-BC	Columbia-Shuswap	CA-BC-CS		10			Meadows in the Sky Parkway, British Columbia, CA (51.011, -118.168)	L19479068	P	51.0111803	-118.1679099	2022-06-05	09:49:00	obsr4830906		S164351515	Traveling	Traveling	P22			27	2.460		2	1	G11879220	
2024-03-10 16:03:19.998829	Canada	CA	British Columbia	CA-BC	Columbia-Shuswap	CA-BC-CS		10			Meadows in the Sky Parkway, British Columbia, CA (51.011, -118.168)	L19479068	P	51.0111803	-118.1679099	2022-06-05	09:49:00	obsr817769		S112220744	Traveling	Traveling	P22			27	2.460		2	1	G11879220	
2022-07-03 03:02:11.030606	Canada	CA	Alberta	CA-AB	Banff	CA-AB-FN		10			6th bridge / wildflower loop	L19482523	P	52.9332020	-118.0304330	2022-06-04	12:46:00	obsr366533		S112235452	Traveling	Traveling	P22			169	2.775		2	1		
2022-06-05 16:28:35.607141	Canada	CA	Alberta	CA-AB	Banff	CA-AB-FN		10			Narrow-leaved puccoon trail	L19483820	P	53.1646480	-117.9716030	2022-06-04	20:04:00	obsr366533		S112240349	Traveling	Traveling	P22			40	1.073		2	1		
2024-03-10 16:03:10.194952	Canada	CA	British Columbia	CA-BC	Columbia-Shuswap	CA-BC-CS		10			Mt. Cartier Trail	L19485868	P	50.9264637	-118.1407340	2022-06-05	14:14:00	obsr817769		S112249165	Traveling	Traveling	P22			42	0.840		2	1	G11879217	
2025-08-23 05:16:19.690013	Canada	CA	British Columbia	CA-BC	Columbia-Shuswap	CA-BC-CS		10			Mt. Cartier Trail	L19485868	P	50.9264637	-118.1407340	2022-06-05	14:14:00	obsr4830906		S164351492	Traveling	Traveling	P22			42	0.840		2	1	G11879217	
2022-05-25 23:11:09.166865	Canada	CA	British Columbia	CA-BC	Thompson-Nicola	CA-BC-TN		10			Southern Yellowhead Highway, Thompson-Nicola B, British Columbia, CA (51.833, -119.287)	L19278728	P	51.8328971	-119.2871519	2022-05-25	09:30:00	obsr2565805		S111301273	Traveling	Traveling	P22			188	2.070		1	1		
2022-06-09 00:05:18.660055	Canada	CA	British Columbia	CA-BC	Thompson-Nicola	CA-BC-TN		10			holdings RD BC CA	L19500708	P	50.9289879	-119.6506962	2022-06-04	08:30:00	obsr3152690		S112477285	Stationary	Stationary	P21			60			2	1	G8528065	
2022-05-27 10:39:23.559669	Canada	CA	British Columbia	CA-BC	Thompson-Nicola	CA-BC-TN		10			Southern Yellowhead Highway, Thunder River, British Columbia, CA (52.283, -119.187)	L19299503	P	52.2832766	-119.1869533	2022-05-26	07:55:00	obsr2565805		S111402052	Stationary	Stationary	P21			1			1	1		
2022-05-29 17:02:39.883168	Canada	CA	British Columbia	CA-BC	Columbia-Shuswap	CA-BC-CS	US-AK_4545	10			French Creek Rd 2 km	L19353295	P	51.6727328	-118.5945710	2022-05-29	09:28:00	obsr228152		S111641330	Stationary	Stationary	P21			5			2	1		Mostly overcast, 8 C, calm.
2022-05-27 16:27:39.09203	Canada	CA	British Columbia	CA-BC	Thompson-Nicola	CA-BC-TN		10			965 Blue River W, Thompson-Nicola CA-BC 52.11382, -119.30705	L19305945	P	52.1138210	-119.3070490	2022-05-27	13:05:00	obsr3098154		S111431262	Stationary	Stationary	P21			21			1	1		
2022-05-27 22:35:19.27342	Canada	CA	British Columbia	CA-BC	Thompson-Nicola	CA-BC-TN		10			Eleanor Lake, Thompson-Nicola CA-BC 52.11285, -119.29930	L19311449	P	52.1128520	-119.2993020	2022-05-27	18:52:00	obsr3098154		S111457079	Traveling	Traveling	P22			42	0.349		1	1		
2022-05-30 14:25:20.540781	Canada	CA	British Columbia	CA-BC	Columbia-Shuswap	CA-BC-CS		10			1043–1065 Centennial Park Dr, Revelstoke CA-BC 50.99200, -118.20643	L19372289	P	50.9920000	-118.2064290	2022-05-30	11:13:00	obsr1620572		S111729855	Stationary	Stationary	P21			59			1	1		
2022-06-05 10:09:03.239397	Canada	CA	Alberta	CA-AB	Banff	CA-AB-FN		10			Athabasca River, Jasper CA-AB 52.89094, -118.06377	L19386032	P	52.8909380	-118.0637670	2022-05-31	07:16:00	obsr1908915		S111794560	Traveling	Traveling	P22			29	0.797		1	1		
2022-05-31 22:53:43.967594	Canada	CA	British Columbia	CA-BC	Fraser-Fort George	CA-BC-FF		10			Mount Robson Visitor Centre	L19397443	P	53.0355039	-119.2289650	2022-05-31	12:55:00	obsr110789		S111850667	Traveling	Traveling	P22			83	1.290		1	1		
2022-06-02 17:53:21.076489	Canada	CA	British Columbia	CA-BC	Cariboo	CA-BC-CR	US-AK_4545	10			Interlakes Marsh	L19424493	P	51.5489859	-120.9206958	2022-06-02	11:40:00	obsr543746		S111980169	Traveling	Traveling	P22			20	1.000		1	1		
2022-06-01 01:28:05.249705	Canada	CA	British Columbia	CA-BC	Thompson-Nicola	CA-BC-TN	US-AK_4545	9			Thompson Dr, J&MR	L19398462	P	51.6083680	-120.1004650	2022-05-31	16:05:00	obsr289152		S111855176	Stationary	Stationary	P21			6			3	1		
2022-06-03 08:28:26.930971	Canada	CA	British Columbia	CA-BC	Fraser-Fort George	CA-BC-FF		10			Blackman Road, Fraser-Fort George H, British Columbia, CA (52.974, -119.437)	L19431318	P	52.9736461	-119.4374223	2022-06-03	05:20:00	obsr197434		S112013843	Stationary	Stationary	P21			5			1	1		
2022-06-03 08:46:24.777502	Canada	CA	British Columbia	CA-BC	Fraser-Fort George	CA-BC-FF		10			Sansom Road, McBride, British Columbia, CA (53.295, -120.172)	L19431592	P	53.2951112	-120.1720358	2022-06-03	05:30:00	obsr197434		S112015030	Stationary	Stationary	P21			5			1	1		
2022-06-03 09:01:12.328	Canada	CA	British Columbia	CA-BC	Fraser-Fort George	CA-BC-FF		10			McBride South Road, McBride, British Columbia, CA (53.312, -120.181)	L19431817	P	53.3117378	-120.1805646	2022-06-03	05:50:00	obsr197434		S112016092	Stationary	Stationary	P21			5			1	1		
2022-06-03 09:45:10.966273	Canada	CA	British Columbia	CA-BC	Fraser-Fort George	CA-BC-FF		10			Westlund Road, Fraser-Fort George H, British Columbia, CA (53.317, -120.205)	L19432475	P	53.3167307	-120.2047189	2022-06-03	06:05:00	obsr197434		S112019261	Traveling	Traveling	P22			18	0.790		1	1		
2022-06-03 10:38:34.594878	Canada	CA	British Columbia	CA-BC	Fraser-Fort George	CA-BC-FF		10			Shelby Road, McBride, British Columbia, CA (53.306, -120.185)	L19433387	P	53.3060292	-120.1847434	2022-06-03	06:51:00	obsr197434		S112023375	Traveling	Traveling	P22			28	1.350		1	1		
2022-06-03 10:58:56.782799	Canada	CA	British Columbia	CA-BC	Fraser-Fort George	CA-BC-FF		10			1 Avenue, McBride, British Columbia, CA (53.297, -120.167)	L19433772	P	53.2972989	-120.1672363	2022-06-03	07:48:00	obsr197434		S112025107	Traveling	Traveling	P22			8	0.950		1	1		
2022-06-03 12:24:25.584599	Canada	CA	British Columbia	CA-BC	Fraser-Fort George	CA-BC-FF		10			Holmes Creek Bridge, Hinkleman Road, Eddy, British Columbia, CA (53.255, -120.063)	L19435366	P	53.2549864	-120.0633861	2022-06-03	09:03:00	obsr197434		S112031850	Stationary	Stationary	P21			16			1	1		Riparian with old growth cottonwood stand.
2022-06-03 13:26:25.547561	Canada	CA	British Columbia	CA-BC	Fraser-Fort George	CA-BC-FF		10			Hinkleman Road, Eddy, British Columbia, CA (53.227, -120.018)	L19436556	P	53.2269018	-120.0179747	2022-06-03	10:20:00	obsr197434		S112036881	Stationary	Stationary	P21			5			1	1		
2022-05-31 22:12:32.69289	Canada	CA	British Columbia	CA-BC	Columbia-Shuswap	CA-BC-CS		10			Centennial Park	L19386543	P	50.9924070	-118.2063690	2022-05-31	07:30:00	obsr2579713		S111829910	Traveling	Traveling	P22			45	2.000		1	1		
2022-06-03 22:22:12.900974	Canada	CA	British Columbia	CA-BC	Fraser-Fort George	CA-BC-FF		10			Eddy Rd off Hinkleman Road, Eddy, British Columbia, CA (53.241, -120.048)	L19445028	P	53.2405816	-120.0478036	2022-06-03	09:40:00	obsr197434		S112074091	Traveling	Traveling	P22			24	0.800		1	1		
2022-06-03 22:30:35.051398	Canada	CA	British Columbia	CA-BC	Fraser-Fort George	CA-BC-FF		10			Nevin Creek, Hinkleman Road, Fraser-Fort George H, British Columbia, CA (53.209, -119.973)	L19445115	P	53.2092992	-119.9728314	2022-06-03	10:32:00	obsr197434		S112074570	Stationary	Stationary	P21			7			1	1		Nevin Creel Wetland. Also possible Catbird heard. Checking recording.
2022-06-02 14:22:53.579217	Canada	CA	British Columbia	CA-BC	Columbia-Shuswap	CA-BC-CS		10			5100 Trans Canada Highway 1, Columbia Shuswap CA-BC 50.97555, -118.72377	L19421281	P	50.9755480	-118.7237720	2022-06-02	11:14:00	obsr1596769		S111965798	Traveling	Traveling	P22			7	0.328		1	1		
2022-06-13 14:53:18.794656	Canada	CA	Alberta	CA-AB	Banff	CA-AB-FN		10			Jasper National Park, Jasper CA-AB 52.79242, -118.00694	L19626197	P	52.7924220	-118.0069390	2022-06-13	11:13:00	obsr352942		S112873727	Traveling	Traveling	P22			98	2.093		2	1		
2022-05-15 17:51:31.43596	Canada	CA	British Columbia	CA-BC	Thompson-Nicola	CA-BC-TN		9			Downie, SM	L1944765	P	51.6821086	-120.0103998	2022-05-14	17:48:00	obsr289152		S110291425	Stationary	Stationary	P21			10			1	1		
2022-07-19 03:13:57.015279	Canada	CA	British Columbia	CA-BC	Thompson-Nicola	CA-BC-TN		9			*Clearwater Valley Rd, DnBL	L1944789	P	51.6858900	-120.0177200	2022-07-17	05:29:00	obsr289152		S115359527	Stationary	Stationary	P21			45			2	1		Mix of sun and cloud; min 12.6°C, max 27.9°C.
2022-07-31 18:51:36.206642	Canada	CA	British Columbia	CA-BC	Thompson-Nicola	CA-BC-TN		9			*Clearwater Valley Rd, DnBL	L1944789	P	51.6858900	-120.0177200	2022-07-30	05:00:00	obsr289152		S116117474	Stationary	Stationary	P21			75			2	1		Sunny; min 13.6°C, max 34.7°C.
2022-07-26 20:22:46.020096	Canada	CA	British Columbia	CA-BC	Thompson-Nicola	CA-BC-TN		9			*Clearwater Valley Rd, DnBL	L1944789	P	51.6858900	-120.0177200	2022-07-23	05:24:00	obsr289152		S115826029	Stationary	Stationary	P21			120			2	1		Mainly sunny; min 10.1°C, max 30.9°C.
2022-05-16 16:06:45.055955	Canada	CA	British Columbia	CA-BC	Thompson-Nicola	CA-BC-TN		9			*Clearwater Valley Rd, DnBL	L1944789	P	51.6858900	-120.0177200	2022-05-14	05:25:00	obsr289152		S110403515	Stationary	Stationary	P21			120			1	1		Thin overcast; min 0.5°C, max 13.6°C.
2022-06-14 18:48:08.119226	Canada	CA	Alberta	CA-AB	Grande Cache	CA-AB-ET		10			Grande Cache, Alberta, CA (53.934, -118.885)	L19644940	P	53.9342353	-118.8845271	2022-06-02	13:47:00	obsr1700806		S112955218	Traveling	Traveling	P22			73	1.658		1	1		
2022-06-06 12:42:20.146652	Canada	CA	Alberta	CA-AB	Banff	CA-AB-FN		10			Pine Bungalows	L19499049	P	52.8899250	-118.0676480	2022-06-06	09:10:00	obsr305731		S112306764	Traveling	Traveling	P22			47	1.426		1	1		
2022-06-08 17:59:15.188149	Canada	CA	British Columbia	CA-BC	Thompson-Nicola	CA-BC-TN		10			holdings RD BC CA	L19500708	P	50.9289879	-119.6506962	2022-06-04	08:30:00	obsr1626997		S112314288	Stationary	Stationary	P21			60			2	1	G8528065	
2022-06-23 14:23:09.954593	Canada	CA	British Columbia	CA-BC	Columbia-Shuswap	CA-BC-CS		10			3043–3245 Airport Way, Revelstoke CA-BC 50.95641, -118.17711	L19508426	P	50.9564080	-118.1771140	2022-06-23	11:04:00	obsr1620572		S113617169	Traveling	Traveling	P22			18	0.552		1	1		
2022-06-12 12:49:43.854702	Canada	CA	British Columbia	CA-BC	Columbia-Shuswap	CA-BC-CS		10			3043–3245 Airport Way, Revelstoke CA-BC 50.95641, -118.17711	L19508426	P	50.9564080	-118.1771140	2022-06-12	08:45:00	obsr1620572		S112783653	Traveling	Traveling	P22			64	1.730		1	1		
2022-06-05 23:30:42.353291	Canada	CA	British Columbia	CA-BC	Columbia-Shuswap	CA-BC-CS		9			Magna bay drive & Eckerman Rd	L19492120	P	50.9756031	-119.2596309	2022-06-03	13:05:00	obsr318700		S112275181	Traveling	Traveling	P22			90	3.000		2	1		
2022-06-07 15:59:05.398623	Canada	CA	British Columbia	CA-BC	Columbia-Shuswap	CA-BC-CS		10			3861–4051 Airport Way, Columbia Shuswap CA-BC 50.94334, -118.15596	L19518767	P	50.9433370	-118.1559630	2022-06-07	12:04:00	obsr1620572		S112396825	Stationary	Stationary	P21			54			1	1		
2022-06-09 00:43:53.87229	Canada	CA	British Columbia	CA-BC	Thompson-Nicola	CA-BC-TN	US-AK_4545	9			Thompson Dr, N&SD	L19525060	P	51.6062470	-120.1021070	2022-06-07	10:25:00	obsr289152		S112427395	Traveling	Traveling	P22			75	0.450		1	1		Walking some of the property next to pasture, then along the river.
2024-05-03 18:19:38.107318	Canada	CA	Alberta	CA-AB	Banff	CA-AB-FN		10			Jasper House	L19553199	P	53.1670194	-117.9737854	2022-06-09	08:59:00	obsr311514		S112553464	Stationary	Stationary	P21			2			1	1		
2024-05-03 18:19:38.107318	Canada	CA	Alberta	CA-AB	Banff	CA-AB-FN		10			Yellowhead Highway, Alberta, CA (53,146, -117,979)	L19554584	P	53.1461712	-117.9791371	2022-06-09	09:04:00	obsr311514		S112559756	Traveling	Traveling	P22			14	0.630		1	1		
2024-05-03 16:56:05.978661	Canada	CA	British Columbia	CA-BC	Columbia-Shuswap	CA-BC-CS		10			1743 Biatecki Rd	L1971631	P	50.9801940	-118.1721452	2022-05-20	14:20:00	obsr384979		S110791135	Stationary	Stationary	P21			90			1	1		
2024-05-03 18:14:16.44455	Canada	CA	British Columbia	CA-BC	Columbia-Shuswap	CA-BC-CS		10			1743 Biatecki Rd	L1971631	P	50.9801940	-118.1721452	2022-06-07	11:00:00	obsr384979		S112412903	Stationary	Stationary	P21			60			1	1		
2024-05-03 16:13:45.896783	Canada	CA	British Columbia	CA-BC	Columbia-Shuswap	CA-BC-CS		10			1743 Biatecki Rd	L1971631	P	50.9801940	-118.1721452	2022-05-11	10:30:00	obsr384979		S109726349	Stationary	Stationary	P21			60			1	1		
2024-05-03 16:44:26.435347	Canada	CA	British Columbia	CA-BC	Columbia-Shuswap	CA-BC-CS		10			1743 Biatecki Rd	L1971631	P	50.9801940	-118.1721452	2022-05-17	10:45:00	obsr384979		S110522966	Stationary	Stationary	P21			60			1	1		
2024-05-03 19:54:37.565416	Canada	CA	British Columbia	CA-BC	Columbia-Shuswap	CA-BC-CS		10			1743 Biatecki Rd	L1971631	P	50.9801940	-118.1721452	2022-07-04	10:15:00	obsr384979		S114433096	Stationary	Stationary	P21			60			1	1		
2024-05-03 19:29:58.170485	Canada	CA	British Columbia	CA-BC	Columbia-Shuswap	CA-BC-CS		10			1743 Biatecki Rd	L1971631	P	50.9801940	-118.1721452	2022-06-28	13:00:00	obsr384979		S113989925	Stationary	Stationary	P21			70			1	1		
2024-05-03 17:46:44.630916	Canada	CA	British Columbia	CA-BC	Columbia-Shuswap	CA-BC-CS		10			1743 Biatecki Rd	L1971631	P	50.9801940	-118.1721452	2022-05-31	10:20:00	obsr384979		S111846289	Stationary	Stationary	P21			75			1	1		
2024-05-03 15:52:58.666489	Canada	CA	British Columbia	CA-BC	Columbia-Shuswap	CA-BC-CS		10			1743 Biatecki Rd	L1971631	P	50.9801940	-118.1721452	2022-05-09	14:00:00	obsr384979		S109503863	Stationary	Stationary	P21			60			1	1		
2024-05-03 20:53:36.781789	Canada	CA	British Columbia	CA-BC	Columbia-Shuswap	CA-BC-CS		10			1743 Biatecki Rd	L1971631	P	50.9801940	-118.1721452	2022-07-22	15:45:00	obsr384979		S115576611	Stationary	Stationary	P21			90			1	1		
2022-07-10 21:54:19.978458	Canada	CA	British Columbia	CA-BC	Columbia-Shuswap	CA-BC-CS		10			1743 Biatecki Rd	L1971631	P	50.9801940	-118.1721452	2022-07-10	15:00:00	obsr384979		S114838708	Stationary	Stationary	P21			120			1	1		
2024-05-03 18:04:46.859726	Canada	CA	British Columbia	CA-BC	Columbia-Shuswap	CA-BC-CS		10			1743 Biatecki Rd	L1971631	P	50.9801940	-118.1721452	2022-06-05	10:30:00	obsr384979		S112262692	Stationary	Stationary	P21			60			1	1		
2024-05-03 16:49:20.857936	Canada	CA	British Columbia	CA-BC	Columbia-Shuswap	CA-BC-CS		10			1743 Biatecki Rd	L1971631	P	50.9801940	-118.1721452	2022-05-18	17:10:00	obsr384979		S110622773	Stationary	Stationary	P21			20			1	1		
2022-06-07 20:00:14.449692	Canada	CA	British Columbia	CA-BC	Columbia-Shuswap	CA-BC-CS		10			Alba Falls	L19522246	P	51.2063204	-119.0060198	2022-05-29	09:10:00	obsr318700		S112412996	Traveling	Traveling	P22			130	2.500		2	1		
2022-06-07 20:03:43.134549	Canada	CA	British Columbia	CA-BC	Columbia-Shuswap	CA-BC-CS		10			Seymour arm	L19522298	P	51.2387557	-118.9421189	2022-05-29	15:00:00	obsr318700		S112413228	Traveling	Traveling	P22			15	0.250		2	1		
2022-07-08 16:37:57.435216	Canada	CA	Alberta	CA-AB	Banff	CA-AB-FN		10			Maligne Canyon Trail, Jasper, Alberta, CA (52.919, -118.003)	L19580060	P	52.9189155	-118.0033974	2022-06-10	20:15:00	obsr231759		S112679920	Traveling	Traveling	P22			75	2.290		2	1	G8652893	
2022-06-19 16:41:33.727014	Canada	CA	British Columbia	CA-BC	Thompson-Nicola	CA-BC-TN		10			331–537 Yellowhead Highway 5, Thompson-Nicola CA-BC 52.08982, -119.31107	L19601747	P	52.0898210	-119.3110730	2022-06-12	07:38:00	obsr217273		S112770093	Stationary	Stationary	P21			15			1	1		
2022-06-12 11:45:19.430734	Canada	CA	British Columbia	CA-BC	Thompson-Nicola	CA-BC-TN		10			7693–7699 Yellowhead Highway 5, Thompson-Nicola CA-BC 51.93336, -119.33751	L19603351	P	51.9333570	-119.3375110	2022-06-12	07:59:00	obsr217273		S112776906	Stationary	Stationary	P21			15			1	1		
2022-06-19 18:18:14.589718	Canada	CA	British Columbia	CA-BC	Thompson-Nicola	CA-BC-TN		10			1838–1900 Yellowhead Highway 5, Thompson-Nicola CA-BC 51.71848, -119.36353	L19603402	P	51.7184830	-119.3635260	2022-06-12	08:45:00	obsr217273		S112777105	Stationary	Stationary	P21			15			1	1		
2022-07-08 16:37:57.435216	Canada	CA	Alberta	CA-AB	Banff	CA-AB-FN		10			Maligne Canyon Trail, Jasper, Alberta, CA (52.919, -118.003)	L19580060	P	52.9189155	-118.0033974	2022-06-10	20:15:00	obsr540314		S114668848	Traveling	Traveling	P22			75	2.290		2	1	G8652893	
2022-06-11 13:15:17.963944	Canada	CA	Alberta	CA-AB	Grande Cache	CA-AB-ET		6			Autoroute 40, Greenview No. 16 CA-AB 54.24234, -118.58784	L19582914	P	54.2423380	-118.5878370	2022-06-11	10:25:00	obsr297705		S112690442	Stationary	Stationary	P21			24			1	1		
2022-06-19 16:51:40.768039	Canada	CA	British Columbia	CA-BC	Thompson-Nicola	CA-BC-TN		10			1919–2035 Adams FSR, Thompson-Nicola CA-BC 51.04465, -119.74919	L19608486	P	51.0446500	-119.7491850	2022-06-12	11:32:00	obsr217273		S112796886	Stationary	Stationary	P21			20			1	1		
2022-06-13 18:10:40.953606	Canada	CA	British Columbia	CA-BC	Columbia-Shuswap	CA-BC-CS	US-AK_4545	10			Downie River 29 km	L19611084	P	51.3929310	-118.0950987	2022-06-12	08:54:00	obsr228152		S112807245	Traveling	Traveling	P22			97	1.290		2	1		Downie River km 29. Partly overcast, 13 C, calm.
2022-06-11 17:05:53.873398	Canada	CA	British Columbia	CA-BC	Columbia-Shuswap	CA-BC-CS		10			3043–3245 Airport Way, Revelstoke CA-BC 50.95576, -118.17650	L19586909	P	50.9557630	-118.1764960	2022-06-11	09:48:00	obsr1620572		S112706178	Traveling	Traveling	P22			155	2.913		1	1		
2022-06-28 23:04:12.942777	Canada	CA	Alberta	CA-AB	Banff	CA-AB-FN		10			Miette Campground	L19782476	P	53.1964368	-117.9136324	2022-06-22	15:51:00	obsr325853		S114006833	Traveling	Traveling	P22			13	0.402		12	1	G8596011	
2022-06-23 00:13:18.300823	Canada	CA	Alberta	CA-AB	Banff	CA-AB-FN		10			Jasper National Park, Jasper CA-AB 52.82899, -118.05946	L19784210	P	52.8289910	-118.0594560	2022-06-22	21:06:00	obsr995097		S113583232	Stationary	Stationary	P21			10			2	1		
2022-06-23 20:01:21.670707	Canada	CA	Alberta	CA-AB	Banff	CA-AB-FN		10			Jasper National Park, Jasper CA-AB 52.82899, -118.05946	L19784210	P	52.8289910	-118.0594560	2022-06-23	11:56:00	obsr995097		S113636911	Traveling	Traveling	P22			18	0.291		2	1		
2022-06-23 20:00:25.289327	Canada	CA	Alberta	CA-AB	Banff	CA-AB-FN		10			Jasper National Park, Jasper CA-AB 52.82899, -118.05946	L19784210	P	52.8289910	-118.0594560	2022-06-23	15:20:00	obsr995097		S113636853	Stationary	Stationary	P21			3			1	1		
2022-06-23 20:00:16.259625	Canada	CA	Alberta	CA-AB	Banff	CA-AB-FN		10			Jasper National Park, Jasper CA-AB 52.82899, -118.05946	L19784210	P	52.8289910	-118.0594560	2022-06-23	16:02:00	obsr995097		S113636842	Traveling	Traveling	P22			26	0.274		2	1		
2022-06-23 20:00:57.351687	Canada	CA	Alberta	CA-AB	Banff	CA-AB-FN		10			Jasper National Park, Jasper CA-AB 52.82899, -118.05946	L19784210	P	52.8289910	-118.0594560	2022-06-23	13:29:00	obsr995097		S113636885	Stationary	Stationary	P21			31			2	1		
2022-06-13 01:41:25.883168	Canada	CA	British Columbia	CA-BC	Fraser-Fort George	CA-BC-FF		10			Yellowhead Highway, Jasper, British Columbia, CA (52.883, -118.452)	L19613503	P	52.8831774	-118.4522366	2022-06-12	16:15:00	obsr169994		S112817644	Traveling	Traveling	P22			38	0.772		2	1	G8547396	
2022-06-28 23:04:12.832757	Canada	CA	Alberta	CA-AB	Banff	CA-AB-FN		10			Jasper National Park - Leach Lake	L19806722	P	52.6922713	-117.9027106	2022-06-24	09:45:00	obsr325853		S114006826	Traveling	Traveling	P22			5	0.322		12	1	G8596018	
2022-08-20 23:01:34.635302	Canada	CA	Alberta	CA-AB	Banff	CA-AB-FN		10			Miette Campground	L19814344	P	53.1952560	-117.9112070	2022-06-24	14:34:00	obsr366533		S113711748	Traveling	Traveling	P22			200	4.812		1	1		
2022-08-20 22:59:06.517329	Canada	CA	Alberta	CA-AB	Banff	CA-AB-FN		10			Miette Campground	L19814344	P	53.1952560	-117.9112070	2022-06-24	22:02:00	obsr366533		S114119585	Stationary	Stationary	P21			79			1	1		
2022-06-15 17:02:26.770161	Canada	CA	British Columbia	CA-BC	Thompson-Nicola	CA-BC-TN		9			McLure	L19648515	P	51.0590120	-120.2261543	2022-06-14	12:20:00	obsr1103461		S112971097	Traveling	Traveling	P22			20	0.200		2	1		
2022-06-13 17:18:06.625311	Canada	CA	Alberta	CA-AB	Banff	CA-AB-FN		10			Icefields Parkway, Jasper, Alberta, CA (52.617, -117.846)	L19628233	P	52.6165386	-117.8463024	2022-06-13	11:15:00	obsr169994		S112882516	Stationary	Stationary	P21			10			2	1	G8551789	
2022-06-14 00:14:41.920229	Canada	CA	Alberta	CA-AB	Banff	CA-AB-FN		10			Icefields Parkway, Jasper, Alberta, CA (52.717, -117.875)	L19628244	P	52.7173396	-117.8751209	2022-06-13	10:36:00	obsr169994		S112882571	Stationary	Stationary	P21			11			2	1	G8551792	
2022-06-13 17:19:31.002809	Canada	CA	Alberta	CA-AB	Banff	CA-AB-FN		10			Yellowhead Highway, Jasper, Alberta, CA (52.963, -118.05)	L19628253	P	52.9632556	-118.0497135	2022-06-13	09:13:00	obsr169994		S112882599	Traveling	Traveling	P22			13	0.354		2	1	G8551793	
2024-05-03 18:31:07.629276	Canada	CA	British Columbia	CA-BC	Cariboo	CA-BC-CR	US-AK_4545	10			7580–7590 Bridge Lake Business Route, Cariboo CA-BC 51.48087, -120.71484	L19629918	P	51.4808680	-120.7148410	2022-06-13	16:12:00	obsr1611170		S112889581	Stationary	Stationary	P21			2			1	1		
2022-06-13 01:41:25.883168	Canada	CA	British Columbia	CA-BC	Fraser-Fort George	CA-BC-FF		10			Yellowhead Highway, Jasper, British Columbia, CA (52.883, -118.452)	L19613503	P	52.8831774	-118.4522366	2022-06-12	16:15:00	obsr5524		S112817645	Traveling	Traveling	P22			38	0.772		2	1	G8547396	
2022-06-13 17:18:06.625311	Canada	CA	Alberta	CA-AB	Banff	CA-AB-FN		10			Icefields Parkway, Jasper, Alberta, CA (52.617, -117.846)	L19628233	P	52.6165386	-117.8463024	2022-06-13	11:15:00	obsr5524		S112882517	Stationary	Stationary	P21			10			2	1	G8551789	
2022-06-14 00:14:41.920229	Canada	CA	Alberta	CA-AB	Banff	CA-AB-FN		10			Icefields Parkway, Jasper, Alberta, CA (52.717, -117.875)	L19628244	P	52.7173396	-117.8751209	2022-06-13	10:36:00	obsr5524		S112882573	Stationary	Stationary	P21			11			2	1	G8551792	
2022-06-13 17:19:31.002809	Canada	CA	Alberta	CA-AB	Banff	CA-AB-FN		10			Yellowhead Highway, Jasper, Alberta, CA (52.963, -118.05)	L19628253	P	52.9632556	-118.0497135	2022-06-13	09:13:00	obsr5524		S112882600	Traveling	Traveling	P22			13	0.354		2	1	G8551793	
2022-06-14 20:50:16.576846	Canada	CA	British Columbia	CA-BC	Thompson-Nicola	CA-BC-TN	US-AK_4545	9			Dutch Lake Resort	L19646533	P	51.6522770	-120.0613420	2022-06-14	17:37:00	obsr683093		S112962429	Stationary	Stationary	P21			12			3	1		
2022-07-24 12:02:47.053466	Canada	CA	British Columbia	CA-BC	Thompson-Nicola	CA-BC-TN	US-AK_4545	9			Dutch Lake Resort	L19646533	P	51.6522770	-120.0613420	2022-06-16	15:40:00	obsr683093		S113082550	Stationary	Stationary	P21			20			2	1		
2022-07-24 11:59:36.196486	Canada	CA	British Columbia	CA-BC	Thompson-Nicola	CA-BC-TN	US-AK_4545	9			Dutch Lake Resort	L19646533	P	51.6522770	-120.0613420	2022-06-15	08:15:00	obsr683093		S113019318	Stationary	Stationary	P21			45			3	1		
2024-05-03 18:38:13.789966	Canada	CA	Alberta	CA-AB	Banff	CA-AB-FN		10			Jasper Sky Tram Base	L19647732	P	52.8497187	-118.1218083	2022-06-14	08:15:00	obsr293417		S112967756	Stationary	Stationary	P21			20			1	1		Waiting for our Skytrain trip to start.
2024-05-03 18:38:13.789966	Canada	CA	British Columbia	CA-BC	Columbia-Shuswap	CA-BC-CS		10			4071–4259 Airport Way, Columbia Shuswap CA-BC 50.93472, -118.15509	L19645734	P	50.9347150	-118.1550860	2022-06-14	16:39:00	obsr332084		S112958795	Stationary	Stationary	P21			8			1	1		
2022-06-17 18:55:34.029726	Canada	CA	Alberta	CA-AB	Banff	CA-AB-FN		10			Pine Bungalows	L19688915	P	52.8892360	-118.0671280	2022-06-17	16:12:00	obsr683093		S113145404	Traveling	Traveling	P22			41	1.616		3	1		
2022-06-18 14:00:37.304511	Canada	CA	Alberta	CA-AB	Banff	CA-AB-FN		10			Jasper National Park, Jasper CA-AB 52.81086, -118.01651	L19702951	P	52.8108580	-118.0165090	2022-06-18	10:03:00	obsr683093		S113201718	Traveling	Traveling	P22			116	4.470		3	1		
2022-06-19 17:45:45.725513	Canada	CA	British Columbia	CA-BC	Columbia-Shuswap	CA-BC-CS		10			407 Edward Street, Revelstoke, British Columbia, CA (50.992, -118.186)	L19728971	P	50.9918761	-118.1857919	2022-06-19	14:42:00	obsr386964		S113305588	Stationary	Stationary	P21			2			2	1		
2022-06-21 17:24:11.011963	Canada	CA	British Columbia	CA-BC	Columbia-Shuswap	CA-BC-CS		10			407 Edward Street, Revelstoke, British Columbia, CA (50.992, -118.186)	L19728971	P	50.9918761	-118.1857919	2022-06-20	09:30:00	obsr386964		S113482326	Traveling	Traveling	P22			150	0.500		1	1		Cloudy with sunny periods and +23c. Walked around my yard.
2022-07-04 16:27:30.963228	Canada	CA	British Columbia	CA-BC	Columbia-Shuswap	CA-BC-CS		10			407 Edward Street, Revelstoke, British Columbia, CA (50.992, -118.186)	L19728971	P	50.9918761	-118.1857919	2022-07-04	10:00:00	obsr386964		S114418789	Stationary	Stationary	P21			60			1	1		Cloudy with sunny periods and +24c.
2022-06-19 18:45:36.747687	Canada	CA	British Columbia	CA-BC	Columbia-Shuswap	CA-BC-CS		10			7050 Trans-Canada Highway, Columbia-Shuswap B, British Columbia, CA (51.138, -117.856)	L19730209	P	51.1380553	-117.8563701	2022-06-19	15:42:00	obsr2980229		S113310306	Stationary	Stationary	P21			5			1	1		
2024-05-03 19:43:08.092901	Canada	CA	Alberta	CA-AB	Banff	CA-AB-FN		10			Jasper National Park	L19935884	P	53.1772450	-117.9718267	2022-07-01	13:00:00	obsr919758		S114226652	Stationary	Stationary	P21			18			2	1		
2022-06-24 00:00:03.506039	Canada	CA	British Columbia	CA-BC	Thompson-Nicola	CA-BC-TN		9			Caverhill Lodge	L19752252	P	51.3264780	-120.3845060	2022-06-23	14:31:00	obsr539795		S113647579	Stationary	Stationary	P21			4			1	1		
2022-06-24 23:33:00.50297	Canada	CA	British Columbia	CA-BC	Thompson-Nicola	CA-BC-TN		9			Caverhill Lodge	L19752252	P	51.3264780	-120.3845060	2022-06-24	09:30:00	obsr539795		S113697217	Traveling	Traveling	P22			60	2.300		2	1	G8596544	On the trail from Caverhill lake lodge to Stoney lake and its southern marsh
2022-05-03 16:50:40.023542	Canada	CA	British Columbia	CA-BC	Columbia-Shuswap	CA-BC-CS		10			407 Edward st.	L1975615	P	50.9956074	-118.1881714	2022-05-03	10:00:00	obsr386964		S108849975	Stationary	Stationary	P21			90			1	1		Sunny with cloudy periods and +14c.
2022-05-03 22:02:05.589133	Canada	CA	British Columbia	CA-BC	Columbia-Shuswap	CA-BC-CS		10			407 Edward st.	L1975615	P	50.9956074	-118.1881714	2022-05-03	17:30:00	obsr386964		S108877376	Stationary	Stationary	P21			60			1	1		Overcast and +14c.
2022-05-04 20:43:17.390286	Canada	CA	British Columbia	CA-BC	Columbia-Shuswap	CA-BC-CS		10			407 Edward st.	L1975615	P	50.9956074	-118.1881714	2022-05-04	17:10:00	obsr386964		S108965596	Stationary	Stationary	P21			20			1	1		Overcast, raining, and +12c.
2022-05-13 19:47:19.438448	Canada	CA	British Columbia	CA-BC	Columbia-Shuswap	CA-BC-CS		10			407 Edward st.	L1975615	P	50.9956074	-118.1881714	2022-05-13	09:00:00	obsr386964		S109932263	Traveling	Traveling	P22			195	0.750		1	1		Overcast and +9c. Walked around yard.
2022-06-19 23:30:29.64532	Canada	CA	British Columbia	CA-BC	Columbia-Shuswap	CA-BC-CS		10			1001 Second St W, Revelstoke CA-BC 51.00386, -118.20653	L19734413	P	51.0038610	-118.2065330	2022-06-19	19:19:00	obsr492041		S113328246	Stationary	Stationary	P21			60			2	1		
2022-06-28 22:45:19.223044	Canada	CA	Alberta	CA-AB	Banff	CA-AB-FN		10			Miette Campground	L19782476	P	53.1964368	-117.9136324	2022-06-22	15:51:00	obsr137781		S114006190	Traveling	Traveling	P22			13	0.402		12	1	G8596011	
2022-06-24 21:13:46.113123	Canada	CA	Alberta	CA-AB	Banff	CA-AB-FN		10			Miette Campground	L19782476	P	53.1964368	-117.9136324	2022-06-22	15:51:00	obsr312212		S113707356	Traveling	Traveling	P22			13	0.402		12	1	G8596011	
2022-06-24 21:13:46.113123	Canada	CA	Alberta	CA-AB	Banff	CA-AB-FN		10			Miette Campground	L19782476	P	53.1964368	-117.9136324	2022-06-22	15:51:00	obsr267531		S113575620	Traveling	Traveling	P22			13	0.402		12	1	G8596011	
2022-06-24 23:33:00.50297	Canada	CA	British Columbia	CA-BC	Thompson-Nicola	CA-BC-TN		9			Caverhill Lodge	L19752252	P	51.3264780	-120.3845060	2022-06-24	09:30:00	obsr540486		S113713352	Traveling	Traveling	P22			60	2.300		2	1	G8596544	On the trail from Caverhill lake lodge to Stoney lake and its southern marsh
2022-08-13 21:29:57.615969	Canada	CA	Alberta	CA-AB	Banff	CA-AB-FN		10			Miette Campground	L19782476	P	53.1964368	-117.9136324	2022-06-22	15:51:00	obsr645152		S116882151	Traveling	Traveling	P22			13	0.402		12	1	G8596011	
2022-06-24 21:13:46.403174	Canada	CA	Alberta	CA-AB	Banff	CA-AB-FN		10			Jasper National Park - Leach Lake	L19806722	P	52.6922713	-117.9027106	2022-06-24	09:45:00	obsr312212		S113707363	Traveling	Traveling	P22			5	0.322		12	1	G8596018	
2022-06-24 21:13:46.403174	Canada	CA	Alberta	CA-AB	Banff	CA-AB-FN		10			Jasper National Park - Leach Lake	L19806722	P	52.6922713	-117.9027106	2022-06-24	09:45:00	obsr267531		S113681140	Traveling	Traveling	P22			5	0.322		12	1	G8596018	
2022-06-28 22:45:18.870974	Canada	CA	Alberta	CA-AB	Banff	CA-AB-FN		10			Jasper National Park - Leach Lake	L19806722	P	52.6922713	-117.9027106	2022-06-24	09:45:00	obsr137781		S114006183	Traveling	Traveling	P22			5	0.322		12	1	G8596018	
2022-06-21 22:32:50.47978	Canada	CA	Alberta	CA-AB	Banff	CA-AB-FN		10			Old Fort Point	L19765459	P	52.8710467	-118.0610561	2022-06-16	10:00:00	obsr2523261		S113488919	Traveling	Traveling	P22			120	4.000		2	1		
2025-09-09 12:09:42.299441	Canada	CA	Alberta	CA-AB	Banff	CA-AB-FN		10			Miette Campground	L19782476	P	53.1964368	-117.9136324	2022-06-22	15:51:00	obsr6536333		S272435243	Traveling	Traveling	P22			13	0.402		12	1	G8596011	
2022-06-22 23:31:28.151029	Canada	CA	British Columbia	CA-BC	Fraser-Fort George	CA-BC-FF		10			Teté Jaune Rest Stop	L19783946	P	52.9763620	-119.4143510	2022-06-22	15:01:00	obsr827658		S113582211	Traveling	Traveling	P22			15	0.421		1	1		Teté Jayne Rest Tea. Windy with highway and river noise- Several patches of white lady slippers and striped coralroot
2022-08-13 21:27:55.667372	Canada	CA	Alberta	CA-AB	Banff	CA-AB-FN		10			Jasper National Park - Leach Lake	L19806722	P	52.6922713	-117.9027106	2022-06-24	09:45:00	obsr645152		S116882040	Traveling	Traveling	P22			5	0.322		12	1	G8596018	
2024-09-18 15:10:33.060185	Canada	CA	British Columbia	CA-BC	Thompson-Nicola	CA-BC-TN		10			Bog Lake	L19836115	P	51.2211581	-120.8435154	2022-06-20	08:00:00	obsr1535527		S113799431	Traveling	Traveling	P22			240	1.500		2	1		Campsite area and circumnavigation by boat around the lake close to its shoreline, in good conditions.--With Jordan Field.
2022-07-07 13:46:26.765202	Canada	CA	British Columbia	CA-BC	Columbia-Shuswap	CA-BC-CS		10			Mount Revelstoke National Park, Columbia Shuswap CA-BC 51.02318, -118.18140	L20026031	P	51.0231850	-118.1814030	2022-07-07	10:33:00	obsr3273746		S114597234	Stationary	Stationary	P21			5			1	1		
2025-09-09 12:09:42.712901	Canada	CA	Alberta	CA-AB	Banff	CA-AB-FN		10			Jasper National Park - Leach Lake	L19806722	P	52.6922713	-117.9027106	2022-06-24	09:45:00	obsr6536333		S272435252	Traveling	Traveling	P22			5	0.322		12	1	G8596018	
2022-07-07 18:15:33.981745	Canada	CA	British Columbia	CA-BC	Cariboo	CA-BC-CR		10			British Columbia, CA (53.222, -120.956)	L20029826	P	53.2223746	-120.9555872	2022-07-03	07:16:00	obsr1647787		S114612244	Stationary	Stationary	P21			28			2	1	G8650128	
2022-07-07 18:15:55.189426	Canada	CA	British Columbia	CA-BC	Cariboo	CA-BC-CR		10			Barkerville, British Columbia, CA (53.102, -120.801)	L20029833	P	53.1022907	-120.8010631	2022-07-03	17:29:00	obsr1647787		S114612266	Traveling	Traveling	P22			184	1.480		2	1	G8650130	
2022-07-07 19:20:54.661451	Canada	CA	British Columbia	CA-BC	Fraser-Fort George	CA-BC-FF		10			Yellowhead Highway, Red Pass, British Columbia, CA (52.996, -119.023)	L20030650	P	52.9962401	-119.0227638	2022-07-07	11:30:00	obsr391787		S114615765	Stationary	Stationary	P21			7			1	1		
2022-07-07 20:38:08.8041	Canada	CA	Alberta	CA-AB	Banff	CA-AB-FN		10			Jasper National Park--Pyramid Island	L20031527	P	52.9251962	-118.0980314	2022-06-21	10:50:00	obsr109471		S114620127	Traveling	Traveling	P22			30	0.250		3	1		Took a walk around the island.  Heard an elk trumpeting in the distance.
2022-06-25 22:00:32.295351	Canada	CA	British Columbia	CA-BC	Thompson-Nicola	CA-BC-TN	US-AK_4545	9			Darfield, British Columbia, CA (51.332, -120.379)	L19833755	P	51.3316495	-120.3791452	2022-06-25	08:42:00	obsr539795		S113789545	Traveling	Traveling	P22			60	2.490		1	1		Walk from Caverhill lodge to Christine Lake
2024-05-03 20:17:26.022783	Canada	CA	Alberta	CA-AB	Banff	CA-AB-FN		10			Jasper National Park--Maligne Lookout	L20059869	P	52.9185807	-118.0029488	2022-06-20	12:12:00	obsr109471		S114736223	Stationary	Stationary	P21			20			2	1		
2022-06-28 15:30:46.442659	Canada	CA	British Columbia	CA-BC	Columbia-Shuswap	CA-BC-CS		10			4496 Airport Way, Revelstoke, British Columbia, CA (50.92, -118.142)	L19879892	P	50.9201935	-118.1415773	2022-06-28	11:54:00	obsr228152		S113981920	Stationary	Stationary	P21			3			1	1		Overcast, 22 C, wind NW 20 kph.
2023-01-11 00:09:54.921694	Canada	CA	Alberta	CA-AB	Banff	CA-AB-FN		10			Jasper National Park, Jasper CA-AB 52.76449, -118.04202	L19842057	P	52.7644940	-118.0420220	2022-06-26	10:10:00	obsr1222578		S113825448	Stationary	Stationary	P21			10			1	1		
2024-05-03 19:29:58.170485	Canada	CA	Alberta	CA-AB	Edson	CA-AB-FT		10			Jun. 27, 2022 12:33 p.m.53.356, -117.859	L19882248	P	53.3558630	-117.8589694	2022-06-27	11:37:00	obsr179637		S113992270	Traveling	Traveling	P22			55	2.980		2	1		
2022-06-28 23:36:51.525331	Canada	CA	Alberta	CA-AB	Banff	CA-AB-FN		10			Old Fort Point Loop, AB	L19885637	P	52.8708287	-118.0608282	2022-06-21	17:00:00	obsr1178978		S113673131	Traveling	Traveling	P22			90	2.500		4	1		Birding on a short hike
2022-07-10 12:09:17.118838	Canada	CA	Alberta	CA-AB	Grande Cache	CA-AB-ET		10			Sulphur Gates Lookout, Grande Cache, Alberta, CA (53.849, -119.185)	L20074295	P	53.8493808	-119.1845803	2022-07-10	09:45:00	obsr1094356		S114796631	Traveling	Traveling	P22			22	2.130		1	1		Very windy
2024-05-03 19:28:47.67753	Canada	CA	British Columbia	CA-BC	Thompson-Nicola	CA-BC-TN		9			Fishtrap Rest Area	L19876874	P	51.0767060	-120.2039370	2022-06-28	07:28:00	obsr943188		S113969901	Traveling	Traveling	P22			10	0.294		2	1		
2022-06-27 18:17:11.210083	Canada	CA	Alberta	CA-AB	Banff	CA-AB-FN		10			Parc national de Jasper, Jasper CA-AB 52.92061, -118.00066	L19864685	P	52.9206070	-118.0006560	2022-06-27	10:59:00	obsr170892		S113916702	Traveling	Traveling	P22			79	2.864		1	1		
2024-05-03 19:29:58.170485	Canada	CA	Alberta	CA-AB	Banff	CA-AB-FN		10			Jasper NP - Red Chair Pullout	L19885170	P	52.8947280	-117.8817300	2022-06-28	18:21:00	obsr943188		S114005639	Stationary	Stationary	P21			8			2	1		
2023-01-11 00:06:37.949087	Canada	CA	Alberta	CA-AB	Banff	CA-AB-FN		10			Jasper National Park, Improvement District No. 12 Jasper Park CA-AB 52.66951, -117.95504	L19865844	P	52.6695100	-117.9550390	2022-06-26	15:52:00	obsr1222578		S113921059	Traveling	Traveling	P22			35	0.805		2	1		
2022-06-30 15:31:24.806069	Canada	CA	British Columbia	CA-BC	Fraser-Fort George	CA-BC-FF		10			Valemount	L19908862	P	52.8319656	-119.2640591	2022-06-30	04:32:00	obsr955508		S114109618	Traveling	Traveling	P22			12	3.000		1	1		
2022-07-30 10:40:34.470602	Canada	CA	British Columbia	CA-BC	Fraser-Fort George	CA-BC-FF		10			1585 Coyote Rd, Fraser-Fort George CA-BC 52.79748, -119.22560	L19919364	P	52.7974770	-119.2255960	2022-07-30	06:45:00	obsr117757		S116014211	Stationary	Stationary	P21			54			1	1		
2022-07-10 14:04:07.71339	Canada	CA	British Columbia	CA-BC	Fraser-Fort George	CA-BC-FF		10			1585 Coyote Rd, Fraser-Fort George CA-BC 52.79748, -119.22560	L19919364	P	52.7974770	-119.2255960	2022-07-10	10:10:00	obsr117757		S114806278	Stationary	Stationary	P21			35			2	1		
2022-07-01 11:10:46.388672	Canada	CA	British Columbia	CA-BC	Fraser-Fort George	CA-BC-FF		10			1585 Coyote Rd, Fraser-Fort George CA-BC 52.79748, -119.22560	L19919364	P	52.7974770	-119.2255960	2022-07-01	08:07:00	obsr117757		S114156849	Stationary	Stationary	P21			2			1	1		
2023-06-19 13:15:13.764398	Canada	CA	British Columbia	CA-BC	Cariboo	CA-BC-CR		10			Mahood Lake Road-Canim Lake S intersection area	L20111511	P	51.8311424	-120.7094857	2022-07-10	09:55:00	obsr543746		S114955716	Traveling	Traveling	P22			15	0.300		1	1		
2022-07-15 15:54:49.031673	Canada	CA	British Columbia	CA-BC	Cariboo	CA-BC-CR		9			Canim Falls Trail	L20111758	H	51.8651793	-120.5816614	2022-07-10	13:08:00	obsr543746		S114956406	Traveling	Traveling	P22			45	1.250		1	1		
2022-07-30 15:21:29.280563	Canada	CA	British Columbia	CA-BC	Cariboo	CA-BC-CR		9			Canim Falls Trail	L20111758	H	51.8651793	-120.5816614	2022-07-25	14:29:00	obsr1181764		S116033710	Traveling	Traveling	P22			60	2.000		2	1	G8733314	Mahood + Canim Falls-Sunny, scattered clouds, 24 degrees.
2022-07-12 23:19:56.48671	Canada	CA	British Columbia	CA-BC	Cariboo	CA-BC-CR		10			Canim-Hendrix Road, south of Tiny Tim Lake	L20111880	P	51.9163938	-120.7647227	2022-07-11	07:55:00	obsr543746		S114957103	Traveling	Traveling	P22			20	2.000		1	1		
2022-07-15 15:51:23.460463	Canada	CA	British Columbia	CA-BC	Cariboo	CA-BC-CR		10			Bog north of Hendrix Lake	L20112056	P	52.1215299	-120.7887749	2022-07-12	07:55:00	obsr543746		S114958825	Stationary	Stationary	P21			8			1	1		
2022-07-15 15:51:23.460463	Canada	CA	British Columbia	CA-BC	Cariboo	CA-BC-CR		10			Bog north of Hendrix Lake	L20112056	P	52.1215299	-120.7887749	2022-07-11	10:25:00	obsr543746		S114957957	Traveling	Traveling	P22			20	0.200		1	1		
2022-07-13 18:34:59.205196	Canada	CA	British Columbia	CA-BC	Cariboo	CA-BC-CR		10			Bosk Lake	L20112080	H	52.1687543	-120.7926892	2022-07-11	10:55:00	obsr543746		S114958046	Traveling	Traveling	P22			70	3.000		1	1		
2022-07-13 18:34:59.205196	Canada	CA	British Columbia	CA-BC	Cariboo	CA-BC-CR		10			Bosk Lake	L20112080	H	52.1687543	-120.7926892	2022-07-12	07:15:00	obsr543746		S114958705	Traveling	Traveling	P22			30	1.250		1	1		
2022-07-13 18:34:45.29588	Canada	CA	British Columbia	CA-BC	Cariboo	CA-BC-CR		10			Elbow Lake	L20112160	H	52.2319321	-120.8285915	2022-07-12	05:25:00	obsr543746		S114958364	Traveling	Traveling	P22			20	1.500		1	1		
2022-07-13 18:34:45.29588	Canada	CA	British Columbia	CA-BC	Cariboo	CA-BC-CR		10			Elbow Lake	L20112160	H	52.2319321	-120.8285915	2022-07-12	05:55:00	obsr543746		S114958420	Traveling	Traveling	P22			5	0.200		1	1		
2022-07-12 23:29:53.204882	Canada	CA	British Columbia	CA-BC	Cariboo	CA-BC-CR		10			550 Road	L20112188	P	52.2098558	-120.9181884	2022-07-12	06:20:00	obsr543746		S114958595	Traveling	Traveling	P22			25	2.000		1	1		
2022-07-12 23:29:09.00479	Canada	CA	British Columbia	CA-BC	Cariboo	CA-BC-CR		10			550 Road	L20112188	P	52.2098558	-120.9181884	2022-07-12	07:00:00	obsr543746		S114958499	Traveling	Traveling	P22			15	2.000		1	1		
2022-07-13 18:34:30.939341	Canada	CA	British Columbia	CA-BC	Cariboo	CA-BC-CR		10			Hendrix Lake	L20112266	H	52.0989158	-120.7868880	2022-07-12	08:15:00	obsr543746		S114958911	Traveling	Traveling	P22			10	0.300		1	1		
2022-07-13 18:35:12.632847	Canada	CA	British Columbia	CA-BC	Cariboo	CA-BC-CR		10			Weller Lake	L20112295	H	51.9466493	-120.7492559	2022-07-12	11:05:00	obsr543746		S114959071	Traveling	Traveling	P22			15	0.750		1	1		
2022-07-13 18:34:15.956923	Canada	CA	British Columbia	CA-BC	Cariboo	CA-BC-CR		10			Beartrack Lake	L20112316	H	51.9578844	-120.7508684	2022-07-12	11:25:00	obsr543746		S114959121	Traveling	Traveling	P22			15	0.500		1	1		
2022-07-13 18:35:26.792195	Canada	CA	British Columbia	CA-BC	Cariboo	CA-BC-CR		10			Christmas Lake	L20112527	H	51.9009469	-120.7882779	2022-07-12	11:50:00	obsr543746		S114960188	Traveling	Traveling	P22			10	0.400		1	1		
2022-07-13 18:35:38.901805	Canada	CA	British Columbia	CA-BC	Cariboo	CA-BC-CR		10			Succour Lake	L20112546	H	51.9053846	-120.8269528	2022-07-12	12:10:00	obsr543746		S114960233	Traveling	Traveling	P22			15	0.750		1	1		
2022-07-15 15:50:47.323202	Canada	CA	British Columbia	CA-BC	Cariboo	CA-BC-CR		10			Lang Lake Road marsh	L20112579	P	51.9336506	-120.8248783	2022-07-12	12:35:00	obsr543746		S114960373	Traveling	Traveling	P22			25	0.750		1	1		
2022-12-17 18:42:05.001017	Canada	CA	Alberta	CA-AB	Banff	CA-AB-FN		10			Pine Lodge, Pyramid Lake, Jasper NP	L19884536	P	52.9159940	-118.0892780	2022-06-23	21:05:00	obsr1294127		S124103002	Stationary	Stationary	P21			67			1	1	G8732465	murky weather/rain watch
2022-12-17 11:27:02.014562	Canada	CA	Alberta	CA-AB	Banff	CA-AB-FN		10			Jasper National Park, Improvement District No. 12 Jasper Park CA-AB 53.20730, -117.92486	L19884654	P	53.2072990	-117.9248560	2022-06-26	13:25:00	obsr1294127		S124103016	Traveling	Traveling	P22			5	4.828		1	1	G8732478	loon seen in small lake on side of road
2022-12-17 11:27:02.05292	Canada	CA	Alberta	CA-AB	Banff	CA-AB-FN		10			Jasper National Park, Jasper CA-AB 52.99618, -118.06391	L19884658	P	52.9961800	-118.0639130	2022-06-26	13:46:00	obsr1294127		S124103018	Traveling	Traveling	P22			5	4.828		1	1	G8732480	
2024-05-03 19:50:07.752519	Canada	CA	British Columbia	CA-BC	Thompson-Nicola	CA-BC-TN		9			Auto selected 50.92612, -120.07742	L19910132	P	50.9261250	-120.0774230	2022-07-01	19:38:00	obsr1611170		S114356670	Stationary	Stationary	P21			245			1	1		All at Community Lake
2022-12-17 18:42:30.364994	Canada	CA	Alberta	CA-AB	Banff	CA-AB-FN		10			Athabasca Pass Viewpoint Area	L19892937	P	52.7172740	-117.8750140	2022-06-25	13:04:00	obsr1294127		S124103011	Stationary	Stationary	P21			13			1	1	G8732473	Athabasca Pass Viewpoint Area
2022-07-14 13:52:24.145082	Canada	CA	Alberta	CA-AB	Banff	CA-AB-FN		10			Icefields Parkway, Jasper, Alberta, CA (52.77, -117.98)	L20132869	P	52.7722733	-117.9668171	2022-07-14	07:47:00	obsr1663802		S115049368	Traveling	Traveling	P22			119	3.701		1	1		
2024-04-17 20:38:27.355297	Canada	CA	Alberta	CA-AB	Banff	CA-AB-FN		10			Parc national de Jasper, Jasper CA-AB 52.87027, -118.07083	L19922252	P	52.8702680	-118.0708340	2022-07-01	11:40:00	obsr1624325		S114168530	Traveling	Traveling	P22			19	1.035		2	1		
2024-04-17 20:38:27.355297	Canada	CA	Alberta	CA-AB	Banff	CA-AB-FN		10			Parc national de Jasper, Jasper CA-AB 52.87145, -118.04913	L19922516	P	52.8714520	-118.0491330	2022-07-01	12:13:00	obsr1624325		S114169570	Stationary	Stationary	P21			30			2	1		
2022-07-03 10:32:55.653777	Canada	CA	British Columbia	CA-BC	Fraser-Fort George	CA-BC-FF		10			1585 Coyote Rd, Fraser-Fort George CA-BC 52.79738, -119.22601	L19955646	P	52.7973820	-119.2260120	2022-07-03	06:59:00	obsr117757		S114304447	Stationary	Stationary	P21			9			1	1		
2022-07-17 13:58:54.53388	Canada	CA	British Columbia	CA-BC	Columbia-Shuswap	CA-BC-CS		9			Burgess’s Lake House	L20161271	P	50.9306240	-119.1940630	2022-07-17	10:45:00	obsr3186642		S115264355	Stationary	Stationary	P21			12			1	1		
2022-07-16 11:20:43.995225	Canada	CA	British Columbia	CA-BC	Columbia-Shuswap	CA-BC-CS		9			Burgess’s Lake House	L20161271	P	50.9306240	-119.1940630	2022-07-16	08:15:00	obsr3186642		S115177397	Stationary	Stationary	P21			4			1	1		
2022-07-16 14:21:39.504295	Canada	CA	Alberta	CA-AB	Banff	CA-AB-FN		10			Jasper National Park - Christine Lake Trail	L20165198	P	52.8690801	-118.2538979	2022-07-16	08:07:00	obsr1663802		S115191603	Traveling	Traveling	P22			116	4.345		1	1		
2022-07-03 22:26:06.316399	Canada	CA	British Columbia	CA-BC	Columbia-Shuswap	CA-BC-CS		10			Auto selected 50.93610, -118.75468	L19970314	P	50.9361040	-118.7546840	2022-07-02	18:00:00	obsr1060476		S114361666	Stationary	Stationary	P21			60			2	1		
2024-05-03 19:46:10.70158	Canada	CA	Alberta	CA-AB	Grande Cache	CA-AB-ET		6			Southview Lookout	L19950214	P	54.1851372	-118.6829039	2022-07-02	12:44:00	obsr546282		S114280554	Stationary	Stationary	P21			6			2	1		
2024-05-03 19:46:10.70158	Canada	CA	Alberta	CA-AB	Edson	CA-AB-FT		6			Gregg Lake	L19950249	P	53.5477302	-117.7982199	2022-07-02	14:57:00	obsr546282		S114280715	Stationary	Stationary	P21			33			2	1		
2024-04-17 20:38:43.185617	Canada	CA	Alberta	CA-AB	Banff	CA-AB-FN		10			Parc national de Jasper, Jasper CA-AB 52.81489, -118.00303	L19950613	P	52.8148920	-118.0030260	2022-07-03	13:03:00	obsr1624325		S114412029	Traveling	Traveling	P22			60	1.068		2	1		
2022-07-04 10:03:36.492147	Canada	CA	British Columbia	CA-BC	Columbia-Shuswap	CA-BC-CS		10			2100 Oak Dr, Revelstoke CA-BC 50.99500, -118.16264	L19975409	P	50.9949990	-118.1626440	2022-07-04	06:43:00	obsr290859		S114386061	Stationary	Stationary	P21			5			1	1		
2022-07-17 00:39:26.571729	Canada	CA	Alberta	CA-AB	Banff	CA-AB-FN		10			Jasper National Park - Edna Lake (53.0737,-118.0437)	L20173729	P	53.0737270	-118.0437190	2022-07-16	19:36:00	obsr3038142		S115226370	Stationary	Stationary	P21			9			2	1	G8683767	Edna lake. Looks and goldeneyes
2022-07-04 20:53:45.380977	Canada	CA	British Columbia	CA-BC	Thompson-Nicola	CA-BC-TN	US-AK_4545	10			Wire Cache Rest Area	L19988586	P	51.6847894	-119.4211131	2022-07-04	11:01:00	obsr955508		S114437123	Stationary	Stationary	P21			15			2	1		
2022-07-04 22:31:29.194261	Canada	CA	British Columbia	CA-BC	Fraser-Fort George	CA-BC-FF		10			2423–2637 Trans Canada Highway 16, Fraser-Fort George CA-BC 53.30089, -120.12400	L19989669	P	53.3008900	-120.1240040	2022-07-04	18:35:00	obsr742115		S114441503	Traveling	Traveling	P22			55	0.497		1	1		Beaverview campsite
2024-05-01 03:32:22.60369	Canada	CA	Alberta	CA-AB	Banff	CA-AB-FN		10			Athabasca River, Jasper CA-AB	L19999939	P	52.8712390	-118.0632680	2022-07-05	09:45:00	obsr108915		S114485858	Traveling	Traveling	P22			263	4.500		2	1	G8643203	Trail #1, 7b et 4a partiellement.
2024-05-01 03:32:22.60369	Canada	CA	Alberta	CA-AB	Banff	CA-AB-FN		10			Athabasca River, Jasper CA-AB	L19999939	P	52.8712390	-118.0632680	2022-07-05	09:45:00	obsr509185		S114485857	Traveling	Traveling	P22			263	4.500		2	1	G8643203	Trail #1, 7b et 4a partiellement.
2022-07-05 14:36:50.263926	Canada	CA	British Columbia	CA-BC	Columbia-Shuswap	CA-BC-CS		10			Shushwap Lake	L19986382	P	51.0217800	-118.9612500	2022-07-05	11:16:00	obsr2762181		S114477821	Stationary	Stationary	P21			19			1	1		
2022-07-06 12:11:20.898366	Canada	CA	British Columbia	CA-BC	Columbia-Shuswap	CA-BC-CS		10			1490 Meadows in the Sky Parkway, British Columbia, CA (51.016, -118.204)	L20010026	P	51.0164782	-118.2042775	2022-07-06	08:17:00	obsr1188559		S114529286	Traveling	Traveling	P22			53	1.191		2	1		
2022-07-05 22:53:33.325313	Canada	CA	British Columbia	CA-BC	Fraser-Fort George	CA-BC-FF		10			10235–10343 Buffalo Rd, Fraser-Fort George CA-BC (52.9034,-119.3779)	L19971073	P	52.9034140	-119.3778850	2022-07-03	07:44:00	obsr280566		S114364847	Traveling	Traveling	P22			25	0.483		1	1		
2024-05-01 03:28:35.580183	Canada	CA	British Columbia	CA-BC	Fraser-Fort George	CA-BC-FF		10			Autoroute Transcanadienne 16, (halte routière) Fraser-Fort George CA-BC	L19979929	P	53.3021250	-120.1439530	2022-07-02	09:44:00	obsr509185		S114404010	Stationary	Stationary	P21			40			2	1	G8638060	
2024-05-01 03:28:35.580183	Canada	CA	British Columbia	CA-BC	Fraser-Fort George	CA-BC-FF		10			Autoroute Transcanadienne 16, (halte routière) Fraser-Fort George CA-BC	L19979929	P	53.3021250	-120.1439530	2022-07-02	09:44:00	obsr108915		S114404011	Stationary	Stationary	P21			40			2	1	G8638060	
2022-07-04 20:41:22.522578	Canada	CA	British Columbia	CA-BC	Columbia-Shuswap	CA-BC-CS	US-AK_4545	10			Goldstream mine	L19988407	P	51.6397840	-118.4999200	2022-07-04	14:09:00	obsr2540269		S114436284	Traveling	Traveling	P22			26	0.200		1	1		
2022-07-08 17:02:54.764125	Canada	CA	British Columbia	CA-BC	Columbia-Shuswap	CA-BC-CS		9			Bastion-Ivy Forest service Road, Eagle Bay, British Columbia, CA (50,916, -119,166)	L20043783	P	50.9164349	-119.1658691	2022-07-08	12:42:00	obsr2751803		S114670272	Traveling	Traveling	P22			52	0.370		1	1		
2022-07-25 11:56:37.830851	Canada	CA	British Columbia	CA-BC	Thompson-Nicola	CA-BC-TN	US-AK_4545	9			Clearwater Bestwestern	L20055082	P	51.6539145	-120.0403916	2022-07-23	20:05:00	obsr2592703		S115736526	Traveling	Traveling	P22			25	0.470		1	1		
2024-03-04 18:02:01.744078	Canada	CA	British Columbia	CA-BC	Thompson-Nicola	CA-BC-TN	US-AK_4545	9			Clearwater Bestwestern	L20055082	P	51.6539145	-120.0403916	2022-07-09	06:23:00	obsr2592703		S114717475	Traveling	Traveling	P22			81	2.350		1	1		
2022-07-07 18:15:33.981745	Canada	CA	British Columbia	CA-BC	Cariboo	CA-BC-CR		10			British Columbia, CA (53.222, -120.956)	L20029826	P	53.2223746	-120.9555872	2022-07-03	07:16:00	obsr1644583		S114612245	Stationary	Stationary	P21			28			2	1	G8650128	
2022-07-07 18:15:55.189426	Canada	CA	British Columbia	CA-BC	Cariboo	CA-BC-CR		10			Barkerville, British Columbia, CA (53.102, -120.801)	L20029833	P	53.1022907	-120.8010631	2022-07-03	17:29:00	obsr1644583		S114612267	Traveling	Traveling	P22			184	1.480		2	1	G8650130	
2022-07-07 22:09:08.119709	Canada	CA	British Columbia	CA-BC	Columbia-Shuswap	CA-BC-CS		10			5120–5164 Trans Canada Highway 1, Columbia Shuswap CA-BC 50.98049, -118.72122	L20032693	P	50.9804890	-118.7212200	2022-07-07	12:21:00	obsr352087		S114624265	Stationary	Stationary	P21			3			1	1		
2022-07-07 22:09:45.135556	Canada	CA	British Columbia	CA-BC	Columbia-Shuswap	CA-BC-CS		10			Nakusp Mica Creek Hwy, Revelstoke CA-BC 51.00909, -118.21632	L20032698	P	51.0090870	-118.2163180	2022-07-07	13:12:00	obsr352087		S114624281	Stationary	Stationary	P21			12			1	1		
2022-07-06 12:20:45.096071	Canada	CA	British Columbia	CA-BC	Columbia-Shuswap	CA-BC-CS	US-AK_4545	10			West Dam point count #1	L20010106	P	51.6394110	-118.5083010	2022-07-05	08:01:00	obsr2540269		S114529896	Stationary	Stationary	P21			10			2	1		100% cloud cover, 11 degrees C
2022-07-06 18:33:09.343454	Canada	CA	British Columbia	CA-BC	Columbia-Shuswap	CA-BC-CS	US-AK_4545	10			Borrow area 1 - point count station #1	L20010196	P	51.6409660	-118.5086320	2022-07-05	08:24:00	obsr2540269		S114533949	Stationary	Stationary	P21			10			1	1		
2022-07-06 12:41:51.935006	Canada	CA	British Columbia	CA-BC	Thompson-Nicola	CA-BC-TN		10			Wells Gray Provincial Park, Thompson-Nicola CA-BC 51.77874, -119.93253	L20010426	P	51.7787390	-119.9325270	2022-07-06	09:36:00	obsr150506		S114531283	Stationary	Stationary	P21			5			1	1		
2022-07-06 12:36:05.314247	Canada	CA	British Columbia	CA-BC	Thompson-Nicola	CA-BC-TN		10			Wells Gray Provincial Park, Thompson-Nicola CA-BC 51.77874, -119.93253	L20010426	P	51.7787390	-119.9325270	2022-07-06	09:30:00	obsr150506		S114530924	Stationary	Stationary	P21			5			1	1		
2022-07-06 13:28:18.147455	Canada	CA	British Columbia	CA-BC	Columbia-Shuswap	CA-BC-CS	US-AK_4545	10			Northeast Dam - point count #3	L20011254	P	51.6412370	-118.5020800	2022-07-05	08:42:00	obsr2540269		S114534268	Stationary	Stationary	P21			10			1	1		
2022-07-06 13:33:45.530661	Canada	CA	British Columbia	CA-BC	Columbia-Shuswap	CA-BC-CS	US-AK_4545	10			Borrow area 2 - point count station #4	L20011332	P	51.6386020	-118.4980250	2022-07-05	09:02:00	obsr2540269		S114534522	Stationary	Stationary	P21			11			1	1		
2024-05-03 20:53:36.781789	Canada	CA	British Columbia	CA-BC	Columbia-Shuswap	CA-BC-CS		10			Mount Revelstoke National Park, Snowforest campground	L20258377	P	51.0181460	-118.2044000	2022-07-22	19:56:00	obsr309004		S115597677	Stationary	Stationary	P21			30			1	1		
2024-05-03 20:53:36.781789	Canada	CA	British Columbia	CA-BC	Columbia-Shuswap	CA-BC-CS		10			Mount Revelstoke National Park, Snowforest campground	L20258377	P	51.0181460	-118.2044000	2022-07-23	07:00:00	obsr309004		S115604660	Stationary	Stationary	P21			30			1	1		
2022-07-23 13:43:21.498697	Canada	CA	Alberta	CA-AB	Edson	CA-AB-FT		6			Auto selected 53.24273, -117.78122	L20261881	P	53.2427250	-117.7812240	2022-07-23	11:18:00	obsr797846		S115612234	Stationary	Stationary	P21			15			1	1		
2022-07-06 23:11:56.559382	Canada	CA	British Columbia	CA-BC	Columbia-Shuswap	CA-BC-CS		10			Mount Revelstoke National Park, Columbia Shuswap CA-BC (51.0242,-118.1538)	L20018728	P	51.0241690	-118.1537920	2022-07-06	20:10:00	obsr280566		S114565542	Stationary	Stationary	P21			10			1	1		
2022-07-13 09:50:57.761653	Canada	CA	British Columbia	CA-BC	Columbia-Shuswap	CA-BC-CS		10			Eagle Bay Road	L20073360	P	50.9603297	-119.1013439	2022-07-10	09:24:00	obsr2960561		S114792825	Traveling	Traveling	P22			1	0.500		1	1		
2022-07-10 16:30:01.960148	Canada	CA	British Columbia	CA-BC	Fraser-Fort George	CA-BC-FF		10			Kinbasket Lake, Fraser-Fort George CA-BC (52.7585,-119.1192)	L20075473	P	52.7585120	-119.1192110	2022-07-10	08:05:00	obsr2520879		S114801591	Stationary	Stationary	P21			18			1	1		
2022-07-10 22:37:17.227788	Canada	CA	Alberta	CA-AB	Banff	CA-AB-FN		10			Old Fort Point Trail	L20085244	P	52.8712470	-118.0622260	2022-07-10	17:02:00	obsr1060476		S114841008	Traveling	Traveling	P22			123	4.401		2	1		
2022-07-24 23:17:12.633025	Canada	CA	British Columbia	CA-BC	Thompson-Nicola	CA-BC-TN	US-AK_4545	9			Raft West FSR	L20285858	P	51.6485869	-119.9763131	2022-07-24	18:43:00	obsr2603537		S115713542	Traveling	Traveling	P22			58	2.510		2	1	G8715366	
2024-05-03 21:03:28.250964	Canada	CA	Alberta	CA-AB	Banff	CA-AB-FN		10			Miette Campground, Jasper Park, AB (53.19401, -117.90696)	L20290653	P	53.1940060	-117.9069550	2022-07-25	06:02:00	obsr227010		S115735821	Traveling	Traveling	P22			85	0.225		2	1		Red Squirrel-2
2024-05-03 21:03:28.250964	Canada	CA	Alberta	CA-AB	Banff	CA-AB-FN		10			Miette Campground, Jasper Park, AB (53.19401, -117.90696)	L20290653	P	53.1940060	-117.9069550	2022-07-24	06:00:00	obsr227010		S115735971	Stationary	Stationary	P21			65			1	1		Red Squirrel-2
2024-05-03 21:03:28.250964	Canada	CA	Alberta	CA-AB	Banff	CA-AB-FN		10			Miette Campground, Jasper Park, AB (53.19401, -117.90696)	L20290653	P	53.1940060	-117.9069550	2022-07-23	18:18:00	obsr227010		S115735784	Stationary	Stationary	P21			10			1	1		
2024-05-03 21:03:28.250964	Canada	CA	Alberta	CA-AB	Banff	CA-AB-FN		10			Miette Campground, Jasper Park, AB (53.19401, -117.90696)	L20290653	P	53.1940060	-117.9069550	2022-07-24	17:08:00	obsr227010		S115735836	Traveling	Traveling	P22			15	0.103		1	1		Snowshoe Hare-1
2024-05-03 21:03:28.250964	Canada	CA	Alberta	CA-AB	Banff	CA-AB-FN		10			Valley of the Five Lakes Trail, Jasper National Park, AB (52.81194, -118.01453)	L20290720	P	52.8119350	-118.0145280	2022-07-24	08:51:00	obsr227010		S115736068	Traveling	Traveling	P22			24	0.928		2	1		Red Squirrel-3, Chipmunk sp-1
2024-05-03 21:03:35.545648	Canada	CA	Alberta	CA-AB	Banff	CA-AB-FN		10			Valley of the Five Lakes Trail, Jasper National Park, AB (52.81194, -118.01453)	L20290720	P	52.8119350	-118.0145280	2022-07-24	11:42:00	obsr227010		S115751088	Traveling	Traveling	P22			13	0.570		2	1		Columbian Ground Squirrel-1
2022-07-09 15:19:17.466984	Canada	CA	British Columbia	CA-BC	Cariboo	CA-BC-CR	US-AK_4545	10			Interlakes Highway, Lone Butte, British Columbia, CA (51.497, -120.77)	L20059365	P	51.4967061	-120.7695993	2022-07-09	11:37:00	obsr2386384		S114734163	Traveling	Traveling	P22			41	1.520		1	1		
2022-07-12 17:38:22.141199	Canada	CA	British Columbia	CA-BC	Columbia-Shuswap	CA-BC-CS		10			3630 Airport Way, Revelstoke, British Columbia, CA (50.946, -118.175)	L20109611	P	50.9456342	-118.1753814	2022-07-12	13:17:00	obsr228152		S114946584	Stationary	Stationary	P21			15			1	1		Few clouds, 30 C, calm. Reservoir at full pond.
2022-07-30 15:21:29.280563	Canada	CA	British Columbia	CA-BC	Cariboo	CA-BC-CR		9			Canim Falls Trail	L20111758	H	51.8651793	-120.5816614	2022-07-25	14:29:00	obsr650099		S116026613	Traveling	Traveling	P22			60	2.000		2	1	G8733314	Mahood + Canim Falls-Sunny, scattered clouds, 24 degrees.
2024-05-03 21:04:40.741725	Canada	CA	Alberta	CA-AB	Banff	CA-AB-FN		10			Valley of the Five Lakes Trail, Jasper National Park, AB (52.84819, -118.00405)	L20309461	P	52.8148880	-118.0040530	2022-07-24	09:22:00	obsr227010		S115818817	Traveling	Traveling	P22			33	0.887		2	1		Red Squirrel-1, Golden-mantled Ground Squirrel-3, Least Chipmunk-5
2024-05-03 21:04:40.741725	Canada	CA	Alberta	CA-AB	Banff	CA-AB-FN		10			Valley of the Five Lakes Trail, Jasper National Park, AB (52.81963, -118.01243)	L20309554	P	52.8196300	-118.0124330	2022-07-24	10:07:00	obsr227010		S115819366	Traveling	Traveling	P22			19	0.952		2	1		Red Squirrel-1
2024-05-03 21:04:40.741725	Canada	CA	Alberta	CA-AB	Banff	CA-AB-FN		10			Valley of the Five Lakes Trail, Jasper National Park, AB (52.82958, -118.03285)	L20309567	P	52.8295760	-118.0328500	2022-07-24	10:52:00	obsr227010		S115819415	Traveling	Traveling	P22			18	0.978		2	1		
2022-07-18 22:52:30.44211	Canada	CA	Alberta	CA-AB	Banff	CA-AB-FN		10			Jasper National Park, Jasper CA-AB 52.85103, -118.12380	L20099325	P	52.8510310	-118.1237960	2022-07-11	19:04:00	obsr293784		S114902693	Traveling	Traveling	P22			28	0.593		5	1		
2024-05-03 20:33:44.553015	Canada	CA	Alberta	CA-AB	Banff	CA-AB-FN		10			Jasper National Park, Jasper CA-AB (52.7634,-117.9657)	L20130266	P	52.7633550	-117.9657260	2022-07-12	11:00:00	obsr968665		S115038766	Traveling	Traveling	P22			10	4.000		2	1		
2022-07-14 13:14:54.258884	Canada	CA	Alberta	CA-AB	Banff	CA-AB-FN		10			Marmot Road, Jasper, Alberta, CA (52.801, -118.077)	L20132345	P	52.8014703	-118.0771836	2022-07-14	10:44:00	obsr1188559		S115047211	Traveling	Traveling	P22			29	0.901		4	1	G8674233	
2022-07-14 13:14:54.258884	Canada	CA	Alberta	CA-AB	Banff	CA-AB-FN		10			Marmot Road, Jasper, Alberta, CA (52.801, -118.077)	L20132345	P	52.8014703	-118.0771836	2022-07-14	10:44:00	obsr1043928		S115047209	Traveling	Traveling	P22			29	0.901		4	1	G8674233	
2024-05-03 20:29:07.698771	Canada	CA	British Columbia	CA-BC	Columbia-Shuswap	CA-BC-CS		10			Seymour Arm - Silver Beach	L20113126	P	51.2369583	-118.9424732	2022-07-08	05:30:00	obsr171182		S114963208	Stationary	Stationary	P21			180			16	1		Four families camping in tents at Silver Beach campground.  Birds observed were only in the campground.
2022-07-04 10:40:48.750368	Canada	CA	Alberta	CA-AB	Edson	CA-AB-FT		6			Switzer P Park north, Gregg Lake	L2034851	P	53.5396953	-117.7960968	2022-07-01	11:14:00	obsr745278		S114389606	Traveling	Traveling	P22			101	3.190		2	1	G8637231	
2022-07-04 10:40:47.706689	Canada	CA	Alberta	CA-AB	Edson	CA-AB-FT		6			Switzer P Park north, Gregg Lake	L2034851	P	53.5396953	-117.7960968	2022-07-02	10:03:00	obsr745278		S114389604	Traveling	Traveling	P22			70	4.610		2	1	G8637230	
2022-07-04 10:40:44.57181	Canada	CA	Alberta	CA-AB	Edson	CA-AB-FT		6			Switzer P Park, Gregg Lake subdivision with feeders	L2034872	P	53.5486205	-117.7978992	2022-07-01	07:41:00	obsr745278		S114389595	Traveling	Traveling	P22			28	0.380		2	1	G8637228	
2022-07-04 10:40:46.385718	Canada	CA	Alberta	CA-AB	Edson	CA-AB-FT		6			Switzer P Park, Gregg Lake subdivision with feeders	L2034872	P	53.5486205	-117.7978992	2022-07-03	08:50:00	obsr745278		S114389600	Traveling	Traveling	P22			30	0.730		2	1	G8637229	
2024-05-03 21:11:58.577083	Canada	CA	Alberta	CA-AB	Banff	CA-AB-FN		10			Parc national de Jasper, mont Roche-Miette (sommet)	L20355653	P	53.1665361	-117.9208769	2022-07-28	15:44:00	obsr419341		S116028038	Traveling	Traveling	P22			114	1.700		4	1		
2024-05-03 21:14:28.463348	Canada	CA	Alberta	CA-AB	Banff	CA-AB-FN		10			Parc national de Jasper, mont Roche-Miette (cirque ⟷ sommet)	L20355759	P	53.1698930	-117.9181534	2022-07-28	13:25:00	obsr419341		S116062445	Traveling	Traveling	P22			138	0.890		4	1		
2024-05-03 21:11:58.577083	Canada	CA	Alberta	CA-AB	Banff	CA-AB-FN		10			Parc national de Jasper, mont Roche-Miette (cirque ⟷ sommet)	L20355759	P	53.1698930	-117.9181534	2022-07-28	17:39:00	obsr419341		S116028397	Traveling	Traveling	P22			137	0.810		4	1		
2024-05-03 21:11:58.577083	Canada	CA	Alberta	CA-AB	Banff	CA-AB-FN		10			Parc national de Jasper, mont Roche-Miette (arrêtes orange)	L20355823	P	53.1764099	-117.9230940	2022-07-28	20:03:00	obsr419341		S116028653	Traveling	Traveling	P22			73	1.610		4	1		
2024-10-22 20:12:11.352538	Canada	CA	Alberta	CA-AB	Banff	CA-AB-FN		10			Parc national de Jasper, mont Roche-Miette (arrêtes orange)	L20355823	P	53.1764099	-117.9230940	2022-07-28	11:12:00	obsr419341		S116061924	Traveling	Traveling	P22			133	1.670		1	1		
2024-05-03 21:14:28.463348	Canada	CA	Alberta	CA-AB	Banff	CA-AB-FN		10			Parc national de Jasper, mont Roche-Miette (forêt)	L20364060	P	53.1830885	-117.9456665	2022-07-28	09:19:00	obsr419341		S116062183	Traveling	Traveling	P22			110	3.220		4	1		
2024-05-03 20:34:30.400991	Canada	CA	British Columbia	CA-BC	Thompson-Nicola	CA-BC-TN		10			5558–5632 Clearwater Valley Rd, Thompson-Nicola CA-BC (51.8841,-120.0217)	L20148938	P	51.8841160	-120.0217020	2022-07-15	11:09:00	obsr1611170		S115125686	Stationary	Stationary	P21			5			1	1		
2022-07-14 13:14:54.796402	Canada	CA	Alberta	CA-AB	Banff	CA-AB-FN		10			Marmot Road, Jasper, Alberta, CA (52.801, -118.077)	L20132345	P	52.8014703	-118.0771836	2022-07-14	10:44:00	obsr1227101		S115047214	Traveling	Traveling	P22			29	0.901		4	1	G8674233	
2022-07-19 11:19:57.547583	Canada	CA	British Columbia	CA-BC	Thompson-Nicola	CA-BC-TN	US-AK_4545	9			Little Fort (general)	L20207338	P	51.3892642	-120.1996758	2022-07-19	07:21:00	obsr2592703		S115375846	Traveling	Traveling	P22			56	0.340		1	1		
2022-07-19 12:51:40.247336	Canada	CA	Alberta	CA-AB	Banff	CA-AB-FN		10			2 Alberta 93A, Jasper, Alberta, CA (52,866, -118,069)	L20207444	P	52.8663428	-118.0693796	2022-07-19	09:27:00	obsr2751803		S115376315	Stationary	Stationary	P21			10			1	1		
2022-07-20 11:17:40.883511	Canada	CA	Alberta	CA-AB	Banff	CA-AB-FN		10			Becker's Chalets	L20172583	P	52.8291243	-118.0589824	2022-07-16	21:00:00	obsr3306064		S115225008	Traveling	Traveling	P22			30	1.000		2	1		Walking around the campground, looking for birds.
2022-07-19 11:07:41.087339	Canada	CA	Alberta	CA-AB	Banff	CA-AB-FN		10			Pyramid Lake Beach	L20172607	P	52.9168063	-118.1016325	2022-07-16	18:30:00	obsr3306064		S115221723	Stationary	Stationary	P21			45			5	1		Having fun on the beach, while also looking for any birds we could find.
2022-07-17 00:39:26.571729	Canada	CA	Alberta	CA-AB	Banff	CA-AB-FN		10			Jasper National Park - Edna Lake (53.0737,-118.0437)	L20173729	P	53.0737270	-118.0437190	2022-07-16	19:36:00	obsr2878606		S115226369	Stationary	Stationary	P21			9			2	1	G8683767	Edna lake. Looks and goldeneyes
2022-07-20 18:40:04.985737	Canada	CA	British Columbia	CA-BC	Fraser-Fort George	CA-BC-FF		10			Unnamed Road, Eddy, British Columbia, CA (53,258, -120,023)	L20224107	P	53.2575883	-120.0228205	2022-07-19	18:17:00	obsr2751803		S115449319	Stationary	Stationary	P21			23			1	1		
2022-07-20 18:39:50.675305	Canada	CA	British Columbia	CA-BC	Fraser-Fort George	CA-BC-FF		10			Unnamed Road, Eddy, British Columbia, CA (53,258, -120,023)	L20224107	P	53.2575883	-120.0228205	2022-07-20	09:30:00	obsr2751803		S115449304	Stationary	Stationary	P21			15			1	1		
2022-07-19 11:05:44.955347	Canada	CA	Alberta	CA-AB	Banff	CA-AB-FN		10			Old Fort Point	L20183097	P	52.8710370	-118.0610454	2022-07-17	11:00:00	obsr3306064		S115267443	Traveling	Traveling	P22			90	4.000		5	1		Walking around the Old Fort Point loop while birding.
2022-07-18 22:46:52.627043	Canada	CA	Alberta	CA-AB	Banff	CA-AB-FN		10			Leach Lake	L20202930	P	52.6939168	-117.9030162	2022-07-13	14:23:00	obsr293784		S115352385	Stationary	Stationary	P21			26			2	1		
2022-07-20 01:01:04.733441	Canada	CA	British Columbia	CA-BC	Fraser-Fort George	CA-BC-FF		10			175 Jack Adams Road, Valemount, British Columbia, CA (52.838, -119.309)	L20215268	P	52.8375078	-119.3091325	2022-07-19	21:41:00	obsr627364		S115411375	Stationary	Stationary	P21			30			4	1		Some birds seen earlier in the day (swallows, hummingbirds)
2022-07-22 19:52:46.533494	Canada	CA	Alberta	CA-AB	Edson	CA-AB-FT		6			Unnamed Road, Alberta, CA (53.756, -118.358)	L20252403	P	53.7561450	-118.3578471	2022-07-22	15:22:00	obsr338345		S115571819	Traveling	Traveling	P22			9	0.644		1	1		
2022-07-19 17:40:36.430386	Canada	CA	British Columbia	CA-BC	Fraser-Fort George	CA-BC-FF		10			Mount Robson Visitor Centre	L20211113	P	53.0355039	-119.2289650	2022-07-15	13:00:00	obsr1472661		S115394983	Traveling	Traveling	P22			120	3.500		2	1		
2022-07-23 17:25:29.351596	Canada	CA	Alberta	CA-AB	Banff	CA-AB-FN		10			Jasper National Park, Improvement District No. 12 Jasper Park CA-AB 52.55705, -117.68010	L20265302	P	52.5570490	-117.6800970	2022-07-22	08:17:00	obsr742115		S115625863	Traveling	Traveling	P22			89	0.641		1	1		
2022-07-31 16:37:08.607634	Canada	CA	Alberta	CA-AB	Banff	CA-AB-FN		10			Jasper NP - Buck Lake	L20268442	P	52.5513720	-117.6656550	2022-07-23	14:34:00	obsr875716		S116108982	Traveling	Traveling	P22			10	0.211		4	1	G8738628	
2022-07-26 21:24:49.970861	Canada	CA	British Columbia	CA-BC	Fraser-Fort George	CA-BC-FF		10			Cranberry Lake, Fraser-Fort George CA-BC 52.81901, -119.24214	L20275535	P	52.8190070	-119.2421350	2022-07-24	06:09:00	obsr117757		S115669481	Traveling	Traveling	P22			104	3.596		2	1		
2022-07-24 23:17:12.633025	Canada	CA	British Columbia	CA-BC	Thompson-Nicola	CA-BC-TN	US-AK_4545	9			Raft West FSR	L20285858	P	51.6485869	-119.9763131	2022-07-24	18:43:00	obsr2592703		S115712602	Traveling	Traveling	P22			58	2.510		2	1	G8715366	
2022-07-22 17:54:32.340678	Canada	CA	Alberta	CA-AB	Edson	CA-AB-FT		10			William A. Switzer Provincial Park, Yellowhead County CA-AB 53.41103, -117.78463	L20250945	P	53.4110310	-117.7846290	2022-07-22	15:41:00	obsr1635940		S115565778	Traveling	Traveling	P22			25	1.000		1	1		
2022-07-22 19:45:27.587173	Canada	CA	Alberta	CA-AB	Banff	CA-AB-FN		10			Jasper National Park, Improvement District No. 12 Jasper Park CA-AB 53.11593, -117.74573	L20252337	P	53.1159340	-117.7457340	2022-07-22	13:07:00	obsr1635940		S115571437	Traveling	Traveling	P22			20	0.400		1	1		
2022-07-31 16:37:08.607634	Canada	CA	Alberta	CA-AB	Banff	CA-AB-FN		10			Jasper NP - Buck Lake	L20268442	P	52.5513720	-117.6656550	2022-07-23	14:34:00	obsr564300		S115638769	Traveling	Traveling	P22			10	0.211		4	1	G8738628	
2023-02-20 14:46:07.527687	Canada	CA	Alberta	CA-AB	Banff	CA-AB-FN		10			Jasper NP - Buck Lake	L20268442	P	52.5513720	-117.6656550	2022-07-23	14:34:00	obsr3630026		S129178034	Traveling	Traveling	P22			10	0.211		4	1	G8738628	
2022-07-28 16:30:53.581462	Canada	CA	British Columbia	CA-BC	Columbia-Shuswap	CA-BC-CS		10			Campground	L20290785	P	51.0006851	-118.2210445	2022-07-27	06:05:00	obsr226121		S115922696	Stationary	Stationary	P21			6			1	1		
2022-07-29 16:24:29.745186	Canada	CA	British Columbia	CA-BC	Columbia-Shuswap	CA-BC-CS		10			Campground	L20290785	P	51.0006851	-118.2210445	2022-07-29	13:19:00	obsr226121		S115974816	Stationary	Stationary	P21			4			1	1		
2022-08-05 11:17:08.513278	Canada	CA	British Columbia	CA-BC	Columbia-Shuswap	CA-BC-CS		10			Campground	L20290785	P	51.0006851	-118.2210445	2022-07-28	07:05:00	obsr226121		S116373122	Stationary	Stationary	P21			4			1	1		
2022-07-25 11:54:56.596884	Canada	CA	British Columbia	CA-BC	Columbia-Shuswap	CA-BC-CS		10			Campground	L20290785	P	51.0006851	-118.2210445	2022-07-24	08:45:00	obsr226121		S115736412	Stationary	Stationary	P21			5			1	1		
2022-08-13 00:00:37.605092	Canada	CA	Alberta	CA-AB	Banff	CA-AB-FN		10			Jasper National Park - Miette Campground	L20527469	P	53.1964697	-117.9110241	2022-07-12	17:00:00	obsr1234432		S116820728	Stationary	Stationary	P21			180			1	1		Miette Campground
2023-02-12 01:03:23.747032	Canada	CA	Alberta	CA-AB	Banff	CA-AB-FN		10			Jasper National Park - Miette Campground	L20527469	P	53.1964697	-117.9110241	2022-07-13	08:30:00	obsr1234432		S116820863	Stationary	Stationary	P21			60			1	1		Miette Campground
2022-10-10 23:08:30.114291	Canada	CA	Alberta	CA-AB	Grande Cache	CA-AB-ET		10			Kakwa Wildland Provincial Park	L20538271	H	54.2110640	-119.9351600	2022-07-02	10:35:00	obsr1512701		S114270098	Traveling	Traveling	P22			25	1.340		2	1		In the clouds, 7 degrees. 2 feet of snow. At the tree line.
2022-07-31 01:16:03.467985	Canada	CA	British Columbia	CA-BC	Fraser-Fort George	CA-BC-FF		10			Hillside Road, Valemount, British Columbia, CA (52.839, -119.255)	L20317875	P	52.8394997	-119.2550948	2022-06-21	13:15:00	obsr245350		S115859491	Stationary	Stationary	P21			60			1	1		Valemount Bike Park
2022-07-27 22:49:12.554854	Canada	CA	British Columbia	CA-BC	Thompson-Nicola	CA-BC-TN	US-AK_4545	9			Ferry Rd	L20323927	P	51.5958867	-120.1177318	2022-07-24	13:25:00	obsr289152		S115886695	Traveling	Traveling	P22			17	1.000		1	1		
2022-07-31 11:11:17.021233	Canada	CA	Alberta	CA-AB	Edson	CA-AB-FT		6			Jarvis Lake	L20368976	P	53.4465920	-117.7997842	2022-07-31	08:59:00	obsr3203225		S116085404	Traveling	Traveling	P22			60	2.000		1	1		
2022-07-31 13:50:06.086292	Canada	CA	British Columbia	CA-BC	Thompson-Nicola	CA-BC-TN		9			397 Russell Street, Barrière, British Columbia, CA (51.16, -120.122)	L20371947	P	51.1600963	-120.1217795	2022-07-31	10:42:00	obsr1117335		S116098023	Traveling	Traveling	P22			7	0.270		2	1	G8737913	
2022-07-31 13:50:06.086292	Canada	CA	British Columbia	CA-BC	Thompson-Nicola	CA-BC-TN		9			397 Russell Street, Barrière, British Columbia, CA (51.16, -120.122)	L20371947	P	51.1600963	-120.1217795	2022-07-31	10:42:00	obsr418194		S116098022	Traveling	Traveling	P22			7	0.270		2	1	G8737913	
2024-05-03 21:11:46.904058	Canada	CA	Alberta	CA-AB	Banff	CA-AB-FN		10			Marmot Road, Jasper, Alberta, CA (52.803, -118.077)	L20348008	P	52.8027162	-118.0771651	2022-07-29	20:43:00	obsr897969		S115995022	Traveling	Traveling	P22			30	1.100		1	1		Short trail to waterfall (Edge of the World), below Marmot ski slopes.
2022-07-04 10:40:48.750368	Canada	CA	Alberta	CA-AB	Edson	CA-AB-FT		6			Switzer P Park north, Gregg Lake	L2034851	P	53.5396953	-117.7960968	2022-07-01	11:14:00	obsr308901		S114172072	Traveling	Traveling	P22			101	3.190		2	1	G8637231	
2022-07-04 10:40:47.706689	Canada	CA	Alberta	CA-AB	Edson	CA-AB-FT		6			Switzer P Park north, Gregg Lake	L2034851	P	53.5396953	-117.7960968	2022-07-02	10:03:00	obsr308901		S114239293	Traveling	Traveling	P22			70	4.610		2	1	G8637230	
2022-07-04 10:40:44.57181	Canada	CA	Alberta	CA-AB	Edson	CA-AB-FT		6			Switzer P Park, Gregg Lake subdivision with feeders	L2034872	P	53.5486205	-117.7978992	2022-07-01	07:41:00	obsr308901		S114152687	Traveling	Traveling	P22			28	0.380		2	1	G8637228	
2022-05-30 00:20:34.175453	Canada	CA	Alberta	CA-AB	Edson	CA-AB-FT		6			Switzer P Park, Gregg Lake subdivision with feeders	L2034872	P	53.5486205	-117.7978992	2022-05-29	22:06:00	obsr308901		S111676044	Stationary	Stationary	P21			13			1	1		
2022-07-04 10:40:46.385718	Canada	CA	Alberta	CA-AB	Edson	CA-AB-FT		6			Switzer P Park, Gregg Lake subdivision with feeders	L2034872	P	53.5486205	-117.7978992	2022-07-03	08:50:00	obsr308901		S114316998	Traveling	Traveling	P22			30	0.730		2	1	G8637229	
2022-06-30 22:36:35.883803	Canada	CA	Alberta	CA-AB	Edson	CA-AB-FT		6			Switzer P Park, Gregg Lake subdivision with feeders	L2034872	P	53.5486205	-117.7978992	2022-06-30	20:00:00	obsr308901		S114132382	Traveling	Traveling	P22			35	2.000		1	1		
2022-05-30 06:05:06.234179	Canada	CA	Alberta	CA-AB	Edson	CA-AB-FT		6			Switzer P Park, Gregg Lake subdivision with feeders	L2034872	P	53.5486205	-117.7978992	2022-05-30	03:55:00	obsr308901		S111682449	Stationary	Stationary	P21			5			1	1		
2022-05-30 06:08:07.607471	Canada	CA	Alberta	CA-AB	Edson	CA-AB-FT		6			Switzer P Park, Gregg Lake subdivision with feeders	L2034872	P	53.5486205	-117.7978992	2022-05-29	19:05:00	obsr308901		S111682576	Stationary	Stationary	P21			15			1	1		Raining
2022-05-30 10:59:54.174944	Canada	CA	Alberta	CA-AB	Edson	CA-AB-FT		6			Switzer P Park, Gregg Lake subdivision with feeders	L2034872	P	53.5486205	-117.7978992	2022-05-30	07:57:00	obsr308901		S111707130	Traveling	Traveling	P22			62	1.180		1	1		
2022-08-29 18:52:18.747763	Canada	CA	British Columbia	CA-BC	Thompson-Nicola	CA-BC-TN		9			Josephine Road	L20715486	P	50.9422280	-120.2337322	2022-07-05	09:30:00	obsr498760		S117784816	Stationary	Stationary	P21			60			1	1		
2022-12-16 12:31:55.949402	Canada	CA	British Columbia	CA-BC	Columbia-Shuswap	CA-BC-CS		10			My home	L20505565	P	50.9917127	-118.1901781	2022-06-19	22:56:00	obsr1093108		S113332658	Stationary	Stationary	P21			10			1	1		
2022-07-03 03:01:24.440561	Canada	CA	Alberta	CA-AB	Banff	CA-AB-FN		10			Jasper National Park--Athabasca Falls	L2081912	H	52.6654001	-117.8842449	2022-06-04	16:22:00	obsr366533		S112165447	Traveling	Traveling	P22			126	2.775		2	1		
2022-06-24 20:39:55.381247	Canada	CA	Alberta	CA-AB	Banff	CA-AB-FN		10			Jasper National Park--Athabasca Falls	L2081912	H	52.6654001	-117.8842449	2022-06-24	13:35:00	obsr995097		S113705221	Stationary	Stationary	P21			12			1	1		
2022-06-24 20:39:47.358065	Canada	CA	Alberta	CA-AB	Banff	CA-AB-FN		10			Jasper National Park--Athabasca Falls	L2081912	H	52.6654001	-117.8842449	2022-06-24	09:37:00	obsr995097		S113705210	Stationary	Stationary	P21			17			2	1		
2022-06-25 14:14:46.094569	Canada	CA	Alberta	CA-AB	Banff	CA-AB-FN		10			Jasper National Park--Athabasca Falls	L2081912	H	52.6654001	-117.8842449	2022-06-25	11:19:00	obsr366533		S113757649	Traveling	Traveling	P22			53	1.227		1	1		
2024-05-03 21:14:28.463348	Canada	CA	Alberta	CA-AB	Banff	CA-AB-FN		10			Jasper National Park--Athabasca Falls	L2081912	H	52.6654001	-117.8842449	2022-07-30	16:45:00	obsr419341		S116061859	Traveling	Traveling	P22			50	0.600		4	1		
2022-09-15 17:35:22.430685	Canada	CA	Alberta	CA-AB	Banff	CA-AB-FN		10			Kerkeslin Campground, Icefields Parkway, Jasper, Alberta, CA (52.631, -117.866)	L20896966	P	52.6308063	-117.8659845	2022-05-18	21:03:00	obsr1237880		S118805260	Stationary	Stationary	P21			45			1	1		
2022-05-11 18:21:45.421409	Canada	CA	Alberta	CA-AB	Banff	CA-AB-FN		10			Jasper National Park--Athabasca Falls	L2081912	H	52.6654001	-117.8842449	2022-05-11	15:11:00	obsr1186374		S109714657	Traveling	Traveling	P22			69	2.180		2	1		
2022-05-04 17:29:53.375018	Canada	CA	Alberta	CA-AB	Banff	CA-AB-FN		10			Jasper National Park--Athabasca Falls	L2081912	H	52.6654001	-117.8842449	2022-05-04	15:02:00	obsr567795		S108946602	Traveling	Traveling	P22			5	0.083		1	1		
2022-07-31 16:36:56.106747	Canada	CA	Alberta	CA-AB	Banff	CA-AB-FN		10			Jasper National Park--Athabasca Falls	L2081912	H	52.6654001	-117.8842449	2022-07-23	13:27:00	obsr875716		S116108971	Traveling	Traveling	P22			35	1.023		4	1	G8738626	
2022-06-06 18:07:35.268479	Canada	CA	Alberta	CA-AB	Banff	CA-AB-FN		10			Jasper National Park--Athabasca Falls	L2081912	H	52.6654001	-117.8842449	2022-06-01	14:07:00	obsr523850		S112333177	Traveling	Traveling	P22			32	0.710		1	1		
2022-07-31 16:36:56.106747	Canada	CA	Alberta	CA-AB	Banff	CA-AB-FN		10			Jasper National Park--Athabasca Falls	L2081912	H	52.6654001	-117.8842449	2022-07-23	13:27:00	obsr564300		S115638729	Traveling	Traveling	P22			35	1.023		4	1	G8738626	
2023-02-20 14:46:07.583176	Canada	CA	Alberta	CA-AB	Banff	CA-AB-FN		10			Jasper National Park--Athabasca Falls	L2081912	H	52.6654001	-117.8842449	2022-07-23	13:27:00	obsr3630026		S129178035	Traveling	Traveling	P22			35	1.023		4	1	G8738626	
2022-07-23 12:50:29.979401	Canada	CA	Alberta	CA-AB	Banff	CA-AB-FN		10			Jasper National Park--Athabasca Falls	L2081912	H	52.6654001	-117.8842449	2022-07-23	10:31:00	obsr1635940		S115609572	Stationary	Stationary	P21			2			1	1		
2022-05-09 19:02:23.546525	Canada	CA	Alberta	CA-AB	Banff	CA-AB-FN		10			Jasper National Park--Athabasca Falls	L2081912	H	52.6654001	-117.8842449	2022-05-09	16:20:00	obsr2137874		S109501109	Traveling	Traveling	P22			41	0.980		1	1		
2024-05-01 03:27:11.682775	Canada	CA	Alberta	CA-AB	Banff	CA-AB-FN		10			Jasper National Park--Athabasca Falls	L2081912	H	52.6654001	-117.8842449	2022-06-26	13:32:00	obsr170892		S113875977	Traveling	Traveling	P22			1	1.000		2	1		
2022-11-14 14:15:42.398517	Canada	CA	Alberta	CA-AB	Banff	CA-AB-FN		10			Jasper National Park--Athabasca Falls	L2081912	H	52.6654001	-117.8842449	2022-05-21	08:15:00	obsr910476		S111038918	Traveling	Traveling	P22			25	0.440		1	1		"0°C, sunny and calm.--<a href=""https://ebird.org/tripreport/58731"">David Thompson Highway 2022</a>"
2022-05-29 19:00:16.121829	Canada	CA	Alberta	CA-AB	Banff	CA-AB-FN		10			Jasper National Park--Athabasca Falls	L2081912	H	52.6654001	-117.8842449	2022-05-29	16:50:00	obsr308901		S111653660	Traveling	Traveling	P22			9	0.970		1	1		
2022-06-13 23:48:33.965565	Canada	CA	Alberta	CA-AB	Banff	CA-AB-FN		10			Jasper National Park--Athabasca Falls	L2081912	H	52.6654001	-117.8842449	2022-06-13	10:54:00	obsr5524		S112882551	Stationary	Stationary	P21			12			2	1	G8551790	
2022-06-13 23:48:33.965565	Canada	CA	Alberta	CA-AB	Banff	CA-AB-FN		10			Jasper National Park--Athabasca Falls	L2081912	H	52.6654001	-117.8842449	2022-06-13	10:54:00	obsr169994		S112882550	Stationary	Stationary	P21			12			2	1	G8551790	
2022-06-08 15:47:41.898805	Canada	CA	Alberta	CA-AB	Banff	CA-AB-FN		10			Jasper National Park--Athabasca Falls	L2081912	H	52.6654001	-117.8842449	2022-06-02	11:30:00	obsr844239		S112466888	Traveling	Traveling	P22			60	0.500		1	1		
2022-09-24 13:07:38.265686	Canada	CA	British Columbia	CA-BC	Thompson-Nicola	CA-BC-TN	US-AK_4545	9			Unnamed Road, Little Fort, British Columbia, CA (51.525, -120.44)	L20995739	P	51.5248153	-120.4403672	2022-07-30	17:14:00	obsr161384		S119338681	Traveling	Traveling	P22			8	0.630		2	1		
2022-10-24 16:25:21.514378	Canada	CA	British Columbia	CA-BC	Thompson-Nicola	CA-BC-TN		10			Wells Gray Provincial Park, Murtle Lake Leo Island(52.123, -119.758)	L21342964	P	52.1230404	-119.7578925	2022-06-07	19:28:00	obsr398317		S121260217	Traveling	Traveling	P22			60	0.386		1	1		Leo Island -Sign in water as well as lower camp. High water. Still lots if snow in mountains. --Sunshine and calm -Much better day and afternoon and evening than I thought
2023-05-20 21:28:26.265628	Canada	CA	British Columbia	CA-BC	Thompson-Nicola	CA-BC-TN		10			Wells Gray Provincial Park, Thompson-Nicola CA-BC (51.9449,-120.2290)	L21153909	P	51.9449100	-120.2289500	2022-05-20	08:00:00	obsr3411566		S120207065	Traveling	Traveling	P22			60	2.000		1	1		10 degrees C. Sunny. Spotted and/or heard within 20m of quiet road.
2024-05-04 01:12:28.977556	Canada	CA	Alberta	CA-AB	Banff	CA-AB-FN		10			Jasper National Park	L21994114	P	52.9060343	-118.0627059	2022-05-30	09:56:00	obsr116402		S125017154	Stationary	Stationary	P21			10			2	1		
2024-05-04 01:12:28.977556	Canada	CA	Alberta	CA-AB	Edson	CA-AB-FT		6			Small pond SW of Hinton-Jasper airport	L21994152	P	53.3206073	-117.7596624	2022-05-22	13:10:00	obsr116402		S125017626	Stationary	Stationary	P21			60			2	1		
2024-05-03 17:46:44.630916	Canada	CA	British Columbia	CA-BC	Thompson-Nicola	CA-BC-TN		10			North Barriere Lake	L2201241	P	51.3421941	-119.8235893	2022-05-30	10:30:00	obsr111849		S111835878	Traveling	Traveling	P22			75	1.000		1	1		sitting in the riparian area in a canoe
2022-06-17 20:30:09.412092	Canada	CA	British Columbia	CA-BC	Columbia-Shuswap	CA-BC-CS		10			Mount Revelstoke National Park--Entrance	L2261838	H	51.0075984	-118.2007885	2022-06-17	15:06:00	obsr398317		S113151333	Traveling	Traveling	P22			88	4.941		2	1		Hiking from Snowforest Campground -68 degrees at start-Overcast, on return a light rain-Green huckleberries, dwarf dogwood in bloom. Very green! Great ferns , mixed conifer/deciduous forest.-2000 ft elevation
2022-06-19 10:54:50.897201	Canada	CA	British Columbia	CA-BC	Columbia-Shuswap	CA-BC-CS		10			Mount Revelstoke National Park--Entrance	L2261838	H	51.0075984	-118.2007885	2022-06-19	06:28:00	obsr398317		S113268495	Traveling	Traveling	P22			86	1.561		2	1		Morning at Camp D8 before we leave.-Light rain,  mid 50's-Birds sleeping.  Campers all asleep.
2022-07-20 16:32:04.985465	Canada	CA	British Columbia	CA-BC	Columbia-Shuswap	CA-BC-CS		10			Mount Revelstoke National Park--Summit	L2261845	H	51.0369684	-118.1462860	2022-07-19	13:38:00	obsr1663620		S115409617	Traveling	Traveling	P22			124	4.410		2	1	G8695928	
2022-07-21 14:57:00.986135	Canada	CA	British Columbia	CA-BC	Columbia-Shuswap	CA-BC-CS		10			Mount Revelstoke National Park--Entrance	L2261838	H	51.0075984	-118.2007885	2022-07-21	07:39:00	obsr228152		S115477852	Stationary	Stationary	P21			15			1	1		Clear sky, 17 C, calm.
2022-06-13 08:44:37.032253	Canada	CA	British Columbia	CA-BC	Columbia-Shuswap	CA-BC-CS		10			Mount Revelstoke National Park--Entrance	L2261838	H	51.0075984	-118.2007885	2022-06-13	05:34:00	obsr217273		S112848640	Stationary	Stationary	P21			10			1	1		
2022-07-31 15:41:11.336606	Canada	CA	British Columbia	CA-BC	Columbia-Shuswap	CA-BC-CS		10			Mount Revelstoke National Park--Summit	L2261845	H	51.0369684	-118.1462860	2022-07-31	08:34:00	obsr228152		S116098737	Traveling	Traveling	P22			60	1.710		1	1		Clear sky, 19 C, calm. Mosquitoes abundant.
2022-05-07 19:42:46.934759	Canada	CA	British Columbia	CA-BC	Columbia-Shuswap	CA-BC-CS		10			Mount Revelstoke National Park--Entrance	L2261838	H	51.0075984	-118.2007885	2022-05-07	15:28:00	obsr1093108		S109268803	Traveling	Traveling	P22			73	2.463		1	1		
2022-07-20 16:32:04.985465	Canada	CA	British Columbia	CA-BC	Columbia-Shuswap	CA-BC-CS		10			Mount Revelstoke National Park--Summit	L2261845	H	51.0369684	-118.1462860	2022-07-19	13:38:00	obsr432964		S115409616	Traveling	Traveling	P22			124	4.410		2	1	G8695928	
